NAME,CITY,COUNTY,STATE,LATITUDE,LONGITUDE,LINES,MAX_VOLT,MIN_VOLT,OWNER,TYPE,STATUS,source_dataset
Cypress Substation,,,TX,30.3035855,-94.2572694,1,500.0,138.0,,transmission,IN SERVICE,OSM
Hartburg Substation,,,TX,30.2660657,-93.7385174,1,500.0,500.0,,transmission,IN SERVICE,OSM
Ajo Switching Station,,,TX,27.0919628,-97.7743888,1,345.0,345.0,American Electric Power,transmission,IN SERVICE,OSM
Angstrom Substation,,,TX,28.0443093,-97.4383661,1,345.0,345.0,American Electric Power,switching,IN SERVICE,OSM
Arthur Von Rosenberg Switchyard,,,TX,29.2582444,-98.384209,1,345.0,345.0,CPS Energy,transmission,IN SERVICE,OSM
Austrop Substation,,,TX,30.2513041,-97.4872937,1,345.0,138.0,Lower Colorado River Authority,transmission,IN SERVICE,OSM
Baffin Substation,,,TX,27.1840025,-97.5969359,1,345.0,34.5,Iberdrola,transmission,IN SERVICE,OSM
Baker Ranch Substation,,,TX,33.3698743,-99.5891474,1,345.0,34.5,Starwood Energy Group,transmission,IN SERVICE,OSM
Bakersfield Substation,,,TX,30.9758554,-102.2890918,1,345.0,345.0,Lower Colorado River Authority,transmission,IN SERVICE,OSM
Bastrop Energy Switchyard,,,TX,30.1454735,-97.5485197,1,345.0,345.0,Bastrop Energy Partners,transmission,IN SERVICE,OSM
Bearkat Substation,,,TX,31.766046,-101.5314989,1,345.0,345.0,Wind Energy Transmission Texas,transmission,IN SERVICE,OSM
Beckham County,,,TX,35.3727622,-99.7544606,1,345.0,345.0,Oklahoma Gas and Electric Company,transmission,IN SERVICE,OSM
Ben Davis Substation,,,TX,32.9577703,-96.6120936,1,345.0,138.0,Garland Power & Light,transmission,IN SERVICE,OSM
Bendix Substation,,,TX,34.1033282,-99.1126646,1,345.0,345.0,Starwood Energy Group,transmission,IN SERVICE,OSM
Bergheim Substation,,,TX,29.7887361,-98.5263178,1,345.0,24.9,Pedernales Electric Cooperative; Lower Colorado River Authority,distribution,IN SERVICE,OSM
Bernoulli Substation,,,TX,31.7991388,-101.4664311,1,345.0,345.0,Wind Energy Transmission Texas,transmission,IN SERVICE,OSM
Big Hill Substation,,,TX,31.0473485,-100.5430595,1,345.0,345.0,Lower Colorado River Authority; American Electric Power,transmission,IN SERVICE,OSM
Bitter Creek Substation,,,TX,32.4378234,-100.3521874,1,345.0,345.0,Lower Colorado River Authority,transmission,IN SERVICE,OSM
Blessing Substation,,,TX,28.8865088,-96.1907981,1,345.0,69.0,American Electric Power,transmission,IN SERVICE,OSM
Blue Summit Wind Substation,,,TX,34.2940551,-99.369219,1,345.0,345.0,NextEra Energy,transmission,IN SERVICE,OSM
Bluff Creek Substation,,,TX,32.1965145,-100.0230566,1,345.0,138.0,American Electric Power,transmission,IN SERVICE,OSM
Bootleg Substation,,,TX,30.994457,-102.2914862,1,345.0,34.5,Southern Power,transmission,IN SERVICE,OSM
Bordas Ii Substation,,,TX,27.4393298,-98.9066251,1,345.0,34.5,NextEra Energy,generation,IN SERVICE,OSM
Bordas Substation,,,TX,27.3211338,-98.9980687,1,345.0,34.5,NextEra Energy,transmission,IN SERVICE,OSM
Border Substation,,,TX,35.2012149,-99.9299012,1,345.0,345.0,Oklahoma Gas & Electric,compensation,IN SERVICE,OSM
Bosque Switching Station,,,TX,31.857833,-97.3593024,1,345.0,138.0,Brazos Electric,generation,IN SERVICE,OSM
Bow Wood Substation,,,TX,31.4631111,-99.5485232,1,345.0,345.0,Lower Colorado River Authority,transmission,IN SERVICE,OSM
Briscoe Wind Farm Substation,,,TX,34.3925076,-101.314887,1,345.0,345.0,Capital Dynamics,transmission,IN SERVICE,OSM
Bruenning'S Breeze Substation,,,TX,26.5221611,-97.6553739,1,345.0,34.5,E.ON,transmission,IN SERVICE,OSM
Cagnon Road Substation,,,TX,29.4161433,-98.7181849,1,345.0,138.0,CPS Energy,transmission,IN SERVICE,OSM
Champion Wind Farm Substation,,,TX,32.3987353,-100.648023,1,345.0,345.0,E.ON,transmission,IN SERVICE,OSM
China Draw Substation,,,TX,32.0623778,-104.1156199,1,345.0,115.0,Xcel Energy,transmission,IN SERVICE,OSM
Claytonville Substation,,,TX,32.628064,-100.5456005,1,345.0,138.0,NextEra Energy,transmission,IN SERVICE,OSM
Clear Crossing Substation,,,TX,33.0013738,-99.6054944,1,345.0,345.0,American Electric Power,transmission,IN SERVICE,OSM
Clear Springs Substation,,,TX,29.6512077,-98.0172553,1,345.0,138.0,Lower Colorado River Authority,transmission,IN SERVICE,OSM
Colbeck'S Corner Wind Farm Substation,,,TX,35.3354041,-101.1511732,1,345.0,34.5,E.ON Climate and Renewables,transmission,IN SERVICE,OSM
Coleto Creek Substation,,,TX,28.7168943,-97.2128424,1,345.0,138.0,American Electric Power,transmission,IN SERVICE,OSM
Colorado Bend 2 Substation,,,TX,29.2876288,-96.0646382,1,345.0,345.0,Exelon,generation,IN SERVICE,OSM
Cottonwood Substation,,,TX,33.7782905,-100.8766514,1,345.0,345.0,Wind Energy Transmission Texas,transmission,IN SERVICE,OSM
Crockett Substation,,,TX,31.3642895,-95.3954506,1,345.0,138.0,Southwestern Electric Power Company,transmission,IN SERVICE,OSM
Cross Substation,,,TX,34.3439922,-100.8939338,1,345.0,138.0,LS Power; South Texas Electric Cooperative,compensation,IN SERVICE,OSM
Dermott Wind Substation,,,TX,32.8638347,-101.0096822,1,345.0,34.5,Lincoln Clean Energy,transmission,IN SERVICE,OSM
Divide Substation,,,TX,31.8695145,-100.7771803,1,345.0,345.0,Lower Colorado River Authority,transmission,IN SERVICE,OSM
Dunlap Substation,,,TX,30.2753841,-97.5397323,1,345.0,138.0,Austin Energy,transmission,IN SERVICE,OSM
Edison Substation,,,TX,30.3331132,-99.57615,1,345.0,345.0,American Electric Power,compensation,IN SERVICE,OSM
Edith Clarke Substation,,,TX,33.9442723,-99.7740592,1,345.0,345.0,American Electric Power,transmission,IN SERVICE,OSM
Elbow Creek Wind Farm,,,TX,32.1240343,-101.3960896,1,345.0,34.5,NRG Energy,transmission,IN SERVICE,OSM
Elk Station Switchyard,,,TX,33.8662364,-101.8389744,1,345.0,345.0,Golden Spread Electric Cooperative,transmission,IN SERVICE,OSM
Faraday Substation,,,TX,32.6480728,-101.3957599,1,345.0,345.0,Wind Energy Transmission Texas,transmission,IN SERVICE,OSM
Fayette Plant #1 Substation,,,TX,29.9182946,-96.7551671,1,345.0,345.0,Lower Colorado River Authority,transmission,IN SERVICE,OSM
Fayette Plant #2 Substation,,,TX,29.9135662,-96.7561472,1,345.0,345.0,Lower Colorado River Authority,transmission,IN SERVICE,OSM
Fowlerton Substation,,,TX,28.3714601,-98.800778,1,345.0,138.0,South Texas Electric Cooperative,distribution,IN SERVICE,OSM
Foxtail Switching Station,,,TX,33.6463144,-99.420794,1,345.0,345.0,American Electric Power,transmission,IN SERVICE,OSM
Garfield Substation,,,TX,30.1426409,-97.5453484,1,345.0,138.0,Austin Energy,transmission,IN SERVICE,OSM
Gasconades Creek Substation,,,TX,31.9393262,-100.8301843,1,345.0,345.0,Lower Colorado River Authority,transmission,IN SERVICE,OSM
Gauss Substation,,,TX,33.4789378,-99.6615509,1,345.0,345.0,American Electric Power,compensation,IN SERVICE,OSM
Gibbons Creek Station,,,TX,30.6225353,-96.081524,1,345.0,138.0,Texas Municipal Power Agency,transmission,IN SERVICE,OSM
Gilleland Creek Substation,,,TX,30.4101324,-97.5742216,1,345.0,138.0,Lower Colorado River Authority,transmission,IN SERVICE,OSM
Grandview Wind Farm 1 Substation,,,TX,35.2541222,-101.1857855,1,345.0,34.5,BlackRock; E.ON Climate and Renewables,transmission,IN SERVICE,OSM
Gray Substation,,,TX,35.407782,-100.8199306,1,345.0,345.0,LS Power,transmission,IN SERVICE,OSM
Green Pastures Wind Substation,,,TX,33.6445517,-99.4207873,1,345.0,34.5,Capital Dynamics,transmission,IN SERVICE,OSM
Grelton Substation,,,TX,32.1663965,-101.8814852,1,345.0,345.0,Wind Energy Transmission Texas,transmission,IN SERVICE,OSM
Gulf Star,,,TX,29.1899163,-95.9669568,1,345.0,345.0,Enel Green Power,generation,IN SERVICE,OSM
Gulf Wind Substation,,,TX,27.0024803,-97.5842034,1,345.0,34.5,Pattern Energy,transmission,IN SERVICE,OSM
Hackberry Wind Substation,,,TX,32.7684258,-99.422825,1,345.0,34.5,RES,transmission,IN SERVICE,OSM
Hays Energy Station,,,TX,29.7830335,-97.9900918,1,345.0,345.0,Lower Colorado River Authority,transmission,IN SERVICE,OSM
Hereford Wind Substation,,,TX,34.7730829,-102.2981288,1,345.0,345.0,EDF,transmission,IN SERVICE,OSM
Hill Country Substation,,,TX,29.6194511,-98.5718361,1,345.0,34.5,CPS Energy,transmission,IN SERVICE,OSM
Holman Substation,,,TX,29.795554,-96.8783831,1,345.0,345.0,Austin Energy,transmission,IN SERVICE,OSM
Hornsby Substation,,,TX,30.2319767,-97.6138648,1,345.0,24.9,Lower Colorado River Authority,industrial,IN SERVICE,OSM
Horse Hollow Kendall Tie,,,TX,32.190205,-100.0170167,1,345.0,138.0,NextEra Energy,transmission,IN SERVICE,OSM
Hugo Substation,,,TX,34.0191303,-95.3124576,1,345.0,138.0,ITC,transmission,IN SERVICE,OSM
Inadale Wind Farm Substation,,,TX,32.4977825,-100.5967304,1,345.0,345.0,E.ON,transmission,IN SERVICE,OSM
J. K. Spruce Switchyard,,,TX,29.3124345,-98.3202134,1,345.0,345.0,CPS Energy,transmission,IN SERVICE,OSM
Jack Creek Substation,,,TX,30.8588896,-96.2588727,1,345.0,138.0,Texas Municipal Power Agency,transmission,IN SERVICE,OSM
Jim Treece Substation,,,TX,34.234163,-99.4341637,1,345.0,345.0,American Electric Power,transmission,IN SERVICE,OSM
Kendall Substation,,,TX,29.984921,-98.8867022,1,345.0,138.0,Lower Colorado River Authority,transmission,IN SERVICE,OSM
Kiowa 1 Sub,,,TX,32.5010783,-103.9680828,1,345.0,115.0,Xcel Energy,transmission,IN SERVICE,OSM
Kiowa Switching Station,,,TX,33.6324551,-96.3576621,1,345.0,345.0,Tenaska,transmission,IN SERVICE,OSM
Kirchhef Substation,,,TX,32.9253314,-100.2167755,1,345.0,345.0,American Electric Power,compensation,IN SERVICE,OSM
Koppril Substation,,,TX,31.9526434,-97.8672011,1,345.0,345.0,NextEra Energy,compensation,IN SERVICE,OSM
La Palma 345 Kv Substation,,,TX,26.1465822,-97.6427407,1,345.0,138.0,American Electric Power,transmission,IN SERVICE,OSM
Lawton Eastside,,,TX,34.6037753,-98.3145577,1,345.0,69.0,Public Service Company of Oklahoma,transmission,IN SERVICE,OSM
Lobo Substation,,,TX,27.5789332,-99.2756424,1,345.0,69.0,American Electric Power,transmission,IN SERVICE,OSM
Lon Hill Substation,,,TX,27.8438525,-97.6155988,1,345.0,69.0,American Electric Power,transmission,IN SERVICE,OSM
Long Draw Substation,,,TX,32.7211161,-101.6329669,1,345.0,345.0,Wind Energy Transmission Texas,transmission,IN SERVICE,OSM
Loraine Wind Farm Substation,,,TX,32.4451045,-100.7459571,1,345.0,345.0,Third Planet Windpower,transmission,IN SERVICE,OSM
Lost Pines Station,,,TX,30.1477503,-97.2727885,1,345.0,345.0,Lower Colorado River Authority,transmission,IN SERVICE,OSM
Lytton Springs Substation,,,TX,30.0053687,-97.6743116,1,345.0,138.0,Austin Energy,transmission,IN SERVICE,OSM
Marana Switchyard,,,TX,27.1034382,-97.5296338,1,345.0,345.0,Iberdrola,transmission,IN SERVICE,OSM
Mariah Del Norte Wind Substation,,,TX,34.686105,-102.6645684,1,345.0,345.0,First Reserve,transmission,IN SERVICE,OSM
Marion Substation,,,TX,29.6208306,-98.1487571,1,345.0,138.0,Lower Colorado River Authority,transmission,IN SERVICE,OSM
Mesquite Creek Wind Substation,,,TX,32.7062487,-101.7397539,1,345.0,34.5,Sumitomo; Duke Energy,transmission,IN SERVICE,OSM
Mesquite Substation,,,TX,32.6287758,-99.54042,1,345.0,34.5,EDP,transmission,IN SERVICE,OSM
Mhos Substation,,,TX,32.9066717,-101.0077689,1,345.0,345.0,Wind Energy Transmission of Texas,switching,IN SERVICE,OSM
Miami Wind Substation,,,TX,35.620227,-100.5413565,1,345.0,345.0,Invenergy,transmission,IN SERVICE,OSM
Minco Substation,,,TX,35.3006856,-98.0268937,1,345.0,345.0,Oklahoma Gas & Electric,transmission,IN SERVICE,OSM
Mulberry Creek Substation,,,TX,32.5241279,-99.8225133,1,345.0,138.0,American Electric Power,transmission,IN SERVICE,OSM
Navarro Switching Station,,,TX,31.963993,-96.5179966,1,345.0,345.0,NextEra Energy,transmission,IN SERVICE,OSM
Nelson Sharpe Substation,,,TX,27.560471,-97.6688342,1,345.0,138.0,American Electric Power,transmission,IN SERVICE,OSM
North Dc-Tie,,,TX,34.0851005,-99.1833565,1,345.0,345.0,American Electric Power,converter,IN SERVICE,OSM
North Mccamey Subsation,,,TX,31.1535274,-102.2232987,1,345.0,138.0,Lower Colorado River Authority,transmission,IN SERVICE,OSM
Northwest Substation,,,TX,35.2508256,-101.9372175,1,345.0,69.0,Xcel Energy; Oklahoma Gas & Electric; Austin Energy,transmission,IN SERVICE,OSM
Nova Prime Substation,,,TX,33.3331823,-100.9601828,1,345.0,345.0,Wind Energy Transmission Texas,transmission,IN SERVICE,OSM
Oklaunion North Substation,,,TX,34.0861611,-99.180768,1,345.0,345.0,Southwestern Electric Power Company,transmission,IN SERVICE,OSM
Oklaunion South Substation,,,TX,34.0823289,-99.1807701,1,345.0,345.0,American Electric Power,transmission,IN SERVICE,OSM
Orsted Substation,,,TX,30.6959311,-100.194869,1,345.0,345.0,American Electric Power,compensation,IN SERVICE,OSM
Osm_Way_1006095181,,,TX,31.0337078,-102.4717405,1,345.0,345.0,Concho Bluff LLC,generation,IN SERVICE,OSM
Osm_Way_1462075735,,,TX,32.3916699,-97.4853628,1,345.0,69.0,Brazos Electric Power,transmission,IN SERVICE,OSM
Osm_Way_1475139688,,,TX,30.2192008,-95.8648659,1,345.0,345.0,Parliament Solar; LLC,generation,IN SERVICE,OSM
Osm_Way_1490401468,,,TX,31.0367405,-102.4881798,1,345.0,345.0,Greasewood II LLC,generation,IN SERVICE,OSM
Osm_Way_1490401485,,,TX,32.718912,-101.6328471,1,345.0,138.0,Wind Energy Transmission Texas,transmission,IN SERVICE,OSM
Osm_Way_1490401526,,,TX,33.78124,-100.8831383,1,345.0,345.0,Engie North America,generation,IN SERVICE,OSM
Osm_Way_1490401527,,,TX,33.781145,-100.8770071,1,345.0,345.0,Burksol; LLC,generation,IN SERVICE,OSM
Osm_Way_172185174,,,TX,31.870411,-100.8345154,1,345.0,34.5,NextEra Energy,transmission,IN SERVICE,OSM
Osm_Way_172185177,,,TX,31.8702172,-100.7792686,1,345.0,138.0,NextEra Energy,transmission,IN SERVICE,OSM
Osm_Way_172364105,,,TX,32.0246135,-94.6210776,1,345.0,345.0,Southwestern Electric Power Company,transmission,IN SERVICE,OSM
Osm_Way_464627665,,,TX,36.4944481,-101.3915346,1,345.0,115.0,Noble Power,transmission,IN SERVICE,OSM
Osm_Way_505843813,,,TX,34.0606038,-101.1878164,1,345.0,345.0,Apex Clean Energy,transmission,IN SERVICE,OSM
Osm_Way_522623912,,,TX,28.9850577,-95.3582433,1,345.0,138.0,Dow Chemical Company,transmission,IN SERVICE,OSM
Palo Duro Wind Substation,,,TX,36.4106027,-101.004244,1,345.0,34.5,NextEra Energy,generation,IN SERVICE,OSM
Panda Temple 1 Substation,,,TX,31.0570663,-97.315088,1,345.0,345.0,Panda Power,transmission,IN SERVICE,OSM
Panda Temple 2 Substation,,,TX,31.0575022,-97.31656,1,345.0,345.0,Panda Power,transmission,IN SERVICE,OSM
Panther Creek Wind 1 Substation,,,TX,32.1004401,-101.4508578,1,345.0,34.5,E.ON,transmission,IN SERVICE,OSM
Panther Creek Wind 2 Substation,,,TX,31.9566722,-101.3017481,1,345.0,34.5,E.ON,transmission,IN SERVICE,OSM
Panther Creek Wind 3 Substation,,,TX,31.9825518,-101.1358764,1,345.0,34.5,E.ON,transmission,IN SERVICE,OSM
Pattern Panhandle Wind 1 Substation,,,TX,35.4147799,-101.2563436,1,345.0,34.5,Pattern Energy,transmission,IN SERVICE,OSM
Pattern Panhandle Wind 2 Substation,,,TX,35.4430283,-101.3728441,1,345.0,34.5,Pattern Energy,transmission,IN SERVICE,OSM
Penascal Substation,,,TX,27.1032675,-97.5287565,1,345.0,34.5,Iberdrola,transmission,IN SERVICE,OSM
Pirkey Substation,,,TX,32.4635163,-94.4785934,1,345.0,345.0,Southwestern Electric Power Company,transmission,IN SERVICE,OSM
Potter County Interchange,,,TX,35.3102787,-101.9229098,1,345.0,230.0,Xcel Energy,transmission,IN SERVICE,OSM
Pyron Wind Farm Substation,,,TX,32.5796911,-100.6925107,1,345.0,34.5,E.ON,transmission,IN SERVICE,OSM
Railhead Substation,,,TX,35.4022323,-101.1538371,1,345.0,345.0,LS Power,transmission,IN SERVICE,OSM
Rattlesnake Den Wind Substation,,,TX,31.7492684,-101.4663721,1,345.0,34.5,Invenergy,transmission,IN SERVICE,OSM
Riley Substation,,,TX,34.0852615,-99.1453349,1,345.0,345.0,American Electric Power,transmission,IN SERVICE,OSM
Rio Nogales Switchyard,,,TX,29.5931056,-97.9749309,1,345.0,345.0,CPS Energy,transmission,IN SERVICE,OSM
Roadrunner,,,TX,31.2077402,-102.181854,1,345.0,345.0,Enel Green Power,generation,IN SERVICE,OSM
Roadrunner Substation,,,TX,32.2122948,-103.5324484,1,345.0,11.5,Xcel Energy,transmission,IN SERVICE,OSM
Romney Substation,,,TX,32.2448282,-98.6739267,1,345.0,345.0,NextEra Energy,compensation,IN SERVICE,OSM
Roscoe Wind Farm Substation,,,TX,32.4699675,-100.6660414,1,345.0,345.0,E.ON,transmission,IN SERVICE,OSM
Salem Substation,,,TX,30.1112125,-96.4256642,1,345.0,138.0,Lower Colorado River Authority,transmission,IN SERVICE,OSM
Sam Switching Station,,,TX,31.8974649,-97.0180753,1,345.0,345.0,NextEra Energy,transmission,IN SERVICE,OSM
San Angelo Red Creek Substation,,,TX,31.5288625,-100.3211088,1,345.0,138.0,American Electric Power,transmission,IN SERVICE,OSM
San Miguel Switchyard,,,TX,28.7040056,-98.4743069,1,345.0,69.0,South Texas Electric Cooperative,transmission,IN SERVICE,OSM
Sand Bluff Substation,,,TX,32.0035397,-101.2732002,1,345.0,345.0,Wind Energy Transmission Texas,transmission,IN SERVICE,OSM
Solstice Substation,,,TX,30.9483202,-103.3617143,1,345.0,138.0,American Electric Power,transmission,IN SERVICE,OSM
South Plains Wind 1 Substation,,,TX,34.08052,-101.323853,1,345.0,345.0,SunEdison,transmission,IN SERVICE,OSM
South Plains Wind 2 Substation,,,TX,34.1960402,-101.3816255,1,345.0,345.0,SunEdison,transmission,IN SERVICE,OSM
Spinning Spur 1 Substation,,,TX,35.2832778,-102.4347427,1,345.0,34.5,Électricité de France,generation,IN SERVICE,OSM
Spinning Spur 2 Substation,,,TX,35.2921983,-102.582591,1,345.0,34.5,Électricité de France,transmission,IN SERVICE,OSM
Spinning Spur 3 Substation,,,TX,35.2971707,-102.7102965,1,345.0,34.5,Électricité de France,transmission,IN SERVICE,OSM
Spring Creek Substation,,,TX,35.6643958,-101.3165137,1,345.0,13.2,Xcel Energy; City of College Station,distribution,IN SERVICE,OSM
Stephens Ranch Wind Project I Substation,,,TX,32.8980338,-101.657924,1,345.0,34.5,Starwood Energy Group,transmission,IN SERVICE,OSM
Stephens Ranch Wind Project Ii Substation,,,TX,32.9826235,-101.6675455,1,345.0,34.5,Starwood Energy Group,transmission,IN SERVICE,OSM
Sunnyside Substation,,,TX,34.1855764,-97.2413044,1,345.0,12.5,Oklahoma Gas & Electric; San Bernard Electric Cooperative,transmission,IN SERVICE,OSM
Sweetwater Wind 1 Substation,,,TX,32.4379359,-100.3511365,1,345.0,34.5,Leeward Renewable Energy,transmission,IN SERVICE,OSM
Sweetwater Wind 4 Substation,,,TX,32.2858733,-100.49521,1,345.0,345.0,Leeward Renewable Energy,transmission,IN SERVICE,OSM
Sweetwater Wind 5 Substation,,,TX,32.2420631,-100.4876464,1,345.0,345.0,Leeward Renewable Energy,transmission,IN SERVICE,OSM
Tater Hill Substation,,,TX,31.6843576,-98.6036635,1,345.0,34.5,Innergex; BlackRock,generation,IN SERVICE,OSM
Tesla Substation,,,TX,34.3733936,-100.0868415,1,345.0,345.0,American Electric Power,transmission,IN SERVICE,OSM
Torrecillas Substation,,,TX,27.6190422,-98.8400848,1,345.0,34.5,NextEra Energy,generation,IN SERVICE,OSM
Tuco Interchange,,,TX,33.8693215,-101.8423909,1,345.0,69.0,Xcel Energy,transmission,IN SERVICE,OSM
Twin Buttes Substation,,,TX,31.5137991,-100.598022,1,345.0,138.0,Lower Colorado River Authority,transmission,IN SERVICE,OSM
Valliant Substation,,,TX,33.9874957,-95.0510082,1,345.0,138.0,American Electric Power,transmission,IN SERVICE,OSM
Vertigo Wind Substation,,,TX,33.6446357,-99.4213944,1,345.0,34.5,Capital Dynamics,transmission,IN SERVICE,OSM
Wake Wind Wind Energy Substation,,,TX,33.8029149,-101.0697597,1,345.0,345.0,Southern Company,transmission,IN SERVICE,OSM
West Shackleford Substation,,,TX,32.6357876,-99.5378545,1,345.0,345.0,NextEra Energy,transmission,IN SERVICE,OSM
Whitepoint Substation,,,TX,27.9357678,-97.3608916,1,345.0,69.0,American Electric Power,transmission,IN SERVICE,OSM
Whitney Switching Station,,,TX,31.8606188,-97.36537,1,345.0,69.0,Brazos Electric,transmission,IN SERVICE,OSM
Zorillo Substation,,,TX,27.0034459,-97.5834731,1,345.0,345.0,American Electric Power,transmission,IN SERVICE,OSM
Zorn Substation,,,TX,29.7726536,-97.9497492,1,345.0,138.0,Lower Colorado River Authority,transmission,IN SERVICE,OSM
Amrad Substation,,,TX,32.5193876,-106.1381686,1,345.0,345.0,,,IN SERVICE,OSM
Blackwater Hvdc Tie,,,TX,34.3007756,-103.1752512,1,345.0,230.0,,converter,IN SERVICE,OSM
Caliente Substation,,,TX,31.8261084,-106.2505333,1,345.0,345.0,,,IN SERVICE,OSM
Cedar Bayou Plant Substation,,,TX,29.7481254,-94.9249778,1,345.0,138.0,,transmission,IN SERVICE,OSM
Channelview Cogen Substation,,,TX,29.8365674,-95.1234255,1,345.0,345.0,,transmission,IN SERVICE,OSM
Chillingham Substation,,,TX,31.005334,-97.2633772,1,345.0,345.0,,generation,IN SERVICE,OSM
Chisholm,,,TX,35.3771513,-99.7197402,1,345.0,230.0,,transmission,IN SERVICE,OSM
Diana Substation,,,TX,32.7443654,-94.6983075,1,345.0,138.0,,transmission,IN SERVICE,OSM
Eagle Mountain Substation,,,TX,32.9082358,-97.477052,1,345.0,345.0,,transmission,IN SERVICE,OSM
Five Wells Substation,,,TX,31.0010725,-97.2557594,1,345.0,345.0,,generation,IN SERVICE,OSM
Frye Substation,,,TX,34.4056743,-101.5766119,1,345.0,345.0,,switching,IN SERVICE,OSM
Goat Wind Substation,,,TX,31.9407824,-100.8270485,1,345.0,345.0,,transmission,IN SERVICE,OSM
Great Western Substation,,,TX,36.1600434,-99.5824573,1,345.0,345.0,,generation,IN SERVICE,OSM
Guadalupe Generating Station,,,TX,29.6231695,-98.1410551,1,345.0,345.0,,transmission,IN SERVICE,OSM
Guthrie Substation,,,TX,36.1896797,-99.4165883,1,345.0,345.0,,switching,IN SERVICE,OSM
Hobbs Substation,,,TX,32.7318048,-103.3116927,1,345.0,115.0,,transmission,IN SERVICE,OSM
Horse Hollow Generation Tie,,,TX,29.9879896,-98.8876517,1,345.0,345.0,,compensation,IN SERVICE,OSM
Hubbard 1 Wind Farm Substation,,,TX,31.7512709,-96.8892898,1,345.0,345.0,,generation,IN SERVICE,OSM
Limestone Wind Substation,,,TX,31.8534454,-96.6219567,1,345.0,345.0,,generation,IN SERVICE,OSM
Longhorn Wind Substation,,,TX,34.3167857,-101.240792,1,345.0,345.0,,transmission,IN SERVICE,OSM
Martin Lake Substation,,,TX,32.2569859,-94.5746502,1,345.0,345.0,,transmission,IN SERVICE,OSM
Minco Wind Substation,,,TX,35.3711816,-98.1355286,1,345.0,345.0,,generation,IN SERVICE,OSM
Monticello Substation,,,TX,33.0915981,-95.0420417,1,345.0,138.0,,generation,IN SERVICE,OSM
Nevill Road Switching Station,,,TX,31.0136135,-102.3095189,1,345.0,345.0,,switching,IN SERVICE,OSM
Newman Substation,,,TX,31.9839419,-106.4348695,1,345.0,115.0,,transmission,IN SERVICE,OSM
North Loving Sub,,,TX,32.2962561,-104.1288143,1,345.0,115.0,,transmission,IN SERVICE,OSM
Nucor Substation,,,TX,31.3524386,-96.1633532,1,345.0,138.0,,industrial,IN SERVICE,OSM
Oasis Substation,,,TX,34.3028542,-103.3380056,1,345.0,115.0,,transmission,IN SERVICE,OSM
Paris Substation,,,TX,33.6390776,-95.58098,1,345.0,138.0,,transmission,IN SERVICE,OSM
Phantom Substation,,,TX,32.160312,-103.8644929,1,345.0,115.0,,transmission,IN SERVICE,OSM
Picante Substation,,,TX,31.8802133,-106.3144331,1,345.0,345.0,,,IN SERVICE,OSM
Rattlesnake Road Substation,,,TX,31.4734853,-96.9603916,1,345.0,345.0,,transmission,IN SERVICE,OSM
Richland Chambers Substation,,,TX,31.8902584,-96.1134069,1,345.0,345.0,,transmission,IN SERVICE,OSM
Roanoke Substation,,,TX,32.9918953,-97.2615896,1,345.0,138.0,,transmission,IN SERVICE,OSM
Rocky Creek Substation,,,TX,32.5957146,-97.4398785,1,345.0,138.0,,transmission,IN SERVICE,OSM
Rothwood Substation,,,TX,30.0903807,-95.4895404,1,345.0,138.0,,transmission,IN SERVICE,OSM
Route 66 Wind Substation,,,TX,35.205911,-101.4349646,1,345.0,345.0,,transmission,IN SERVICE,OSM
Salt Fork Wind Substation,,,TX,35.1638446,-100.9401515,1,345.0,34.5,,transmission,IN SERVICE,OSM
Seagoville Switching Station,,,TX,32.6734295,-96.5462804,1,345.0,12.0,,transmission,IN SERVICE,OSM
Steel Dynamics Substation,,,TX,28.0568296,-97.4459822,1,345.0,345.0,,industrial,IN SERVICE,OSM
Sulphur Springs Switching Station,,,TX,33.0857835,-95.6164077,1,345.0,138.0,,transmission,IN SERVICE,OSM
Tenaska Frontier Station,,,TX,30.5938538,-95.9191085,1,345.0,345.0,,transmission,IN SERVICE,OSM
Tenaska Gateway Station,,,TX,32.0178186,-94.6212325,1,345.0,345.0,,transmission,IN SERVICE,OSM
Tesla Battery Substation,,,TX,30.2314058,-97.6158352,1,345.0,24.9,,generation,IN SERVICE,OSM
Tnp One Substation,,,TX,31.0912725,-96.6935559,1,345.0,345.0,,transmission,IN SERVICE,OSM
Tolk Substation,,,TX,34.1810967,-102.5708925,1,345.0,230.0,,transmission,IN SERVICE,OSM
Tradinghouse Substation,,,TX,31.5747307,-96.9641921,1,345.0,138.0,,transmission,IN SERVICE,OSM
Tri-Corner Substation,,,TX,32.553663,-96.5375282,1,345.0,345.0,,transmission,IN SERVICE,OSM
Tyler Substation,,,TX,32.2798012,-95.3464743,1,345.0,138.0,,transmission,IN SERVICE,OSM
Watermill Substation,,,TX,32.5586511,-96.726362,1,345.0,13.0,,transmission,IN SERVICE,OSM
West Plano Substation,,,TX,33.0126726,-96.7774426,1,345.0,138.0,,transmission,IN SERVICE,OSM
Western Trail Wind Farm Substation,,,TX,33.8432241,-99.057378,1,345.0,345.0,,,IN SERVICE,OSM
Wolf Hollow Substation,,,TX,32.3354372,-97.732226,1,345.0,345.0,,transmission,IN SERVICE,OSM
Yoakum Substation,,,TX,33.1253054,-102.7660413,1,345.0,115.0,,transmission,IN SERVICE,OSM
Amarillo South Interchange,,,TX,35.0996971,-101.8639121,1,230.0,115.0,Xcel Energy,transmission,IN SERVICE,OSM
Antelope Station Switchyard,,,TX,33.865477,-101.8426087,1,230.0,230.0,Golden Spread Electric Cooperative,transmission,IN SERVICE,OSM
Batiste Creek Substation,,,TX,30.2328245,-94.6816443,1,230.0,230.0,Sam Houston Electric Cooperative,distribution,IN SERVICE,OSM
Bushland Interchange,,,TX,35.147888,-102.0985369,1,230.0,115.0,Xcel Energy,transmission,IN SERVICE,OSM
Carlisle Interchange,,,TX,33.5911348,-101.9669157,1,230.0,69.0,Xcel Energy,transmission,IN SERVICE,OSM
Channing Substation,,,TX,35.6888513,-102.3266766,1,230.0,34.5,Xcel Energy,distribution,IN SERVICE,OSM
Cirrus Substation,,,TX,33.0329378,-101.6837118,1,230.0,230.0,Cirrus Wind Energy,transmission,IN SERVICE,OSM
Deaf Smith Interchange,,,TX,34.8207776,-102.3608448,1,230.0,115.0,Xcel Energy,transmission,IN SERVICE,OSM
East Plant Substation,,,TX,35.2144763,-101.804028,1,230.0,69.0,Xcel Energy,transmission,IN SERVICE,OSM
Elk City Substation,,,TX,35.388391,-99.3984923,1,230.0,69.0,Public Service Company of Oklahoma,transmission,IN SERVICE,OSM
Grapevine Interchange,,,TX,35.4019438,-100.8909778,1,230.0,115.0,Xcel Energy,transmission,IN SERVICE,OSM
Grassland Interchange,,,TX,33.1799745,-101.6850188,1,230.0,115.0,Xcel Energy,transmission,IN SERVICE,OSM
Harrington Switchyard,,,TX,35.2964471,-101.7472585,1,230.0,230.0,Xcel Energy,generation,IN SERVICE,OSM
Howard Substation,,,TX,35.4308009,-100.2799081,1,230.0,115.0,CPS Energy,yes,IN SERVICE,OSM
Hutchinson County Interchange,,,TX,35.6316654,-101.4399063,1,230.0,69.0,Xcel Energy,transmission,IN SERVICE,OSM
Jones Station,,,TX,33.5225592,-101.7389603,1,230.0,230.0,Xcel Energy,transmission,IN SERVICE,OSM
Laredo Vft South Yard,,,TX,27.5701178,-99.5094777,1,230.0,138.0,American Electric Power,transmission,IN SERVICE,OSM
Lubbock East Interchange,,,TX,33.5712191,-101.7914901,1,230.0,69.0,Xcel Energy,transmission,IN SERVICE,OSM
Lubbock South Interchange,,,TX,33.5116755,-101.8262887,1,230.0,69.0,Xcel Energy,transmission,IN SERVICE,OSM
Moore County Substation,,,TX,35.9667759,-101.8630795,1,230.0,115.0,Xcel Energy,transmission,IN SERVICE,OSM
Nichols Switchyard,,,TX,35.2834978,-101.7452844,1,230.0,115.0,Xcel Energy,generation,IN SERVICE,OSM
Ochiltree Interchange,,,TX,36.4088605,-100.8170875,1,230.0,115.0,Xcel Energy,distribution,IN SERVICE,OSM
Osm_Way_449786772,,,TX,36.0682731,-102.5358878,1,230.0,115.0,Xcel Energy,transmission,IN SERVICE,OSM
Pringle Interchange,,,TX,35.9948194,-101.3919929,1,230.0,115.0,Xcel Energy,transmission,IN SERVICE,OSM
Randall County Interchange,,,TX,35.1484801,-101.7757785,1,230.0,115.0,Xcel Energy,transmission,IN SERVICE,OSM
Rolling Hills Interchange,,,TX,35.2956616,-101.8409848,1,230.0,115.0,Xcel Energy,transmission,IN SERVICE,OSM
San Juan Substation,,,TX,33.9612565,-103.8295703,1,230.0,230.0,NextEra Energy Resources,generation,IN SERVICE,OSM
Wildorado Wind Substation,,,TX,35.2820157,-102.3163302,1,230.0,34.5,NRG Energy,transmission,IN SERVICE,OSM
Wolfforth Interchange,,,TX,33.4915119,-102.0556732,1,230.0,115.0,Xcel Energy,transmission,IN SERVICE,OSM
Carlsbad Sub,,,TX,32.445269,-104.200344,1,230.0,115.0,,distribution,IN SERVICE,OSM
Cunningham Substation,,,TX,32.7132468,-103.3530284,1,230.0,115.0,,transmission,IN SERVICE,OSM
Denver City Substation,,,TX,32.9728238,-102.7433121,1,230.0,230.0,,,IN SERVICE,OSM
Kiowa 2 Sub,,,TX,32.5059026,-103.9655326,1,230.0,69.0,,transmission,IN SERVICE,OSM
Newhart,,,TX,34.4671951,-102.0690363,1,230.0,115.0,,transmission,IN SERVICE,OSM
Pleasant Hill Substation,,,TX,34.4883471,-103.1462456,1,230.0,230.0,,distribution,IN SERVICE,OSM
San Juan Tap,,,TX,33.9907203,-103.8583864,1,230.0,230.0,,switching,IN SERVICE,OSM
Seminole,,,TX,32.7828601,-102.6756116,1,230.0,115.0,,transmission,IN SERVICE,OSM
Seven Rivers Substation,,,TX,32.5807504,-104.4135869,1,230.0,115.0,,transmission,IN SERVICE,OSM
Swisher,,,TX,34.3990115,-101.7953576,1,230.0,115.0,,transmission,IN SERVICE,OSM
Vfw Park Substation,,,TX,29.9617857,-93.8972247,1,230.0,230.0,,transmission,IN SERVICE,OSM
Wheeler Substation,,,TX,35.372848,-100.243781,1,230.0,115.0,,transmission,IN SERVICE,OSM
Van Buren Substation,,,TX,35.2171109,-101.8386758,1,161.0,69.0,Xcel Energy; Southwestern Power Administration,distribution,IN SERVICE,OSM
16Th Street Substation,,,TX,30.9004025,-102.8732426,1,138.0,69.0,Texas-New Mexico Power,transmission,IN SERVICE,OSM
221 - Nasa Substation,,,TX,29.563161,-95.085244,1,138.0,13.8,National Aeronautics and Space Administration,industrial,IN SERVICE,OSM
36Th Street Substation,,,TX,29.3980748,-98.5689914,1,138.0,138.0,CPS Energy,distribution,IN SERVICE,OSM
Aa Pipeline Substation,,,TX,31.764229,-103.1763229,1,138.0,138.0,Texas-New Mexico Power,industrial,IN SERVICE,OSM
Abilene Aileen Substation,,,TX,32.4886637,-99.7002004,1,138.0,138.0,American Electric Power,distribution,IN SERVICE,OSM
Abilene East Substation,,,TX,32.4527876,-99.699777,1,138.0,69.0,American Electric Power,transmission,IN SERVICE,OSM
Abilene East Switching Station,,,TX,32.4533109,-99.6980186,1,138.0,138.0,American Electric Power,transmission,IN SERVICE,OSM
Abilene Elm Creek Substation,,,TX,32.4580538,-99.7895292,1,138.0,69.0,American Electric Power,transmission,IN SERVICE,OSM
Abilene Industrial Park Substation,,,TX,32.4651945,-99.8113581,1,138.0,138.0,American Electric Power,distribution,IN SERVICE,OSM
Abilene Northwest Substation,,,TX,32.5028,-99.7898766,1,138.0,69.0,American Electric Power,transmission,IN SERVICE,OSM
Abilene Rebecca Lane Substation,,,TX,32.3944181,-99.7826959,1,138.0,138.0,American Electric Power,distribution,IN SERVICE,OSM
Abilene South Substation,,,TX,32.35902,-99.7512193,1,138.0,69.0,American Electric Power,transmission,IN SERVICE,OSM
Abilene Twilight Trails Substation,,,TX,32.4173836,-99.787209,1,138.0,138.0,American Electric Power,distribution,IN SERVICE,OSM
Ackerly Substation,,,TX,32.5945604,-101.7879834,1,138.0,138.0,Golden Spread Electric Cooperative,distribution,IN SERVICE,OSM
Adamsville Substation,,,TX,31.2297741,-98.1593374,1,138.0,138.0,Lower Colorado River Authority,distribution,IN SERVICE,OSM
Air Liquide Substation,,,TX,27.8148983,-97.4779812,1,138.0,69.0,American Electric Power; Air Liquide,industrial,IN SERVICE,OSM
Airco Substation,,,TX,28.5098979,-96.7959532,1,138.0,138.0,American Electric Power,industrial,IN SERVICE,OSM
Airline Substation,,,TX,27.6957668,-97.3733939,1,138.0,69.0,American Electric Power,transmission,IN SERVICE,OSM
Airport Substation,,,TX,30.9030669,-102.9191557,1,138.0,69.0,Texas-New Mexico Power; Brownsville Public Utilities Board,distribution,IN SERVICE,OSM
Alamo Cement Substation,,,TX,29.611783,-98.3744229,1,138.0,138.0,CPS Energy,industrial,IN SERVICE,OSM
Alazan Substation,,,TX,27.5598557,-97.5022098,1,138.0,138.0,American Electric Power,distribution,IN SERVICE,OSM
Alcoa Substation,,,TX,28.6575689,-96.5576281,1,138.0,138.0,Alcoa,industrial,IN SERVICE,OSM
Alice Substation,,,TX,27.7298352,-98.0874594,1,138.0,69.0,American Electric Power,transmission,IN SERVICE,OSM
Altus Substation,,,TX,34.6670776,-99.3431239,1,138.0,138.0,Public Service Company of Oklahoma,distribution,IN SERVICE,OSM
Alum Creek Substation,,,TX,30.065852,-97.2331286,1,138.0,138.0,Lower Colorado River Authority,distribution,IN SERVICE,OSM
Alvin Substation,,,TX,29.4333127,-95.2494409,1,138.0,12.5,Texas-New Mexico Power,distribution,IN SERVICE,OSM
Amd Substation,,,TX,29.4494757,-98.6400584,1,138.0,138.0,CPS Energy; Austin Energy,industrial,IN SERVICE,OSM
Amoco Substation,,,TX,31.6495484,-100.8653448,1,138.0,69.0,Amoco; Texas-New Mexico Power,industrial,IN SERVICE,OSM
Anacacho Substation,,,TX,29.204646,-100.1712142,1,138.0,34.5,E.ON,transmission,IN SERVICE,OSM
Anderson Substation,,,TX,29.483879,-98.7183807,1,138.0,138.0,CPS Energy,distribution,IN SERVICE,OSM
Andice Substation,,,TX,30.7489665,-97.875798,1,138.0,69.0,Pedernales Electric Cooperative,transmission,IN SERVICE,OSM
Angleton Substation,,,TX,29.1669775,-95.4406374,1,138.0,12.5,Texas-New Mexico Power,distribution,IN SERVICE,OSM
Angus Valley Substation,,,TX,30.4004696,-97.7776692,1,138.0,138.0,Austin Energy,distribution,IN SERVICE,OSM
Antler Substation,,,TX,29.7768041,-98.4133703,1,138.0,24.9,Pedernales Electric Cooperative,distribution,IN SERVICE,OSM
Apache Substation,,,TX,29.3787017,-94.9475574,1,138.0,138.0,Texas-New Mexico Power,industrial,IN SERVICE,OSM
Aransas Pass Substation,,,TX,27.9268503,-97.1817571,1,138.0,69.0,American Electric Power,transmission,IN SERVICE,OSM
Armstrong Substation,,,TX,26.9272072,-97.7896753,1,138.0,138.0,American Electric Power,distribution,IN SERVICE,OSM
Asherton Substation,,,TX,28.4423395,-99.7557185,1,138.0,12.5,American Electric Power,transmission,IN SERVICE,OSM
Ashton Woods,,,TX,30.4432169,-97.705001,1,138.0,138.0,Austin Energy,distribution,IN SERVICE,OSM
Aspermont Substation,,,TX,33.1395697,-100.2262434,1,138.0,69.0,American Electric Power; Brazos Electric,transmission,IN SERVICE,OSM
Asphalt Mines Substation,,,TX,29.1881584,-100.0242075,1,138.0,12.5,American Electric Power,distribution,IN SERVICE,OSM
Aubrey Substation,,,TX,33.3050741,-96.9998454,1,138.0,138.0,Brazos Electric,distribution,IN SERVICE,OSM
Aurora Substation,,,TX,33.0512223,-97.5482651,1,138.0,138.0,Brazos Electric,distribution,IN SERVICE,OSM
Austin Dam Substation,,,TX,30.2932723,-97.7843888,1,138.0,138.0,Austin Energy,distribution,IN SERVICE,OSM
Austin Road Substation,,,TX,29.503893,-98.4080401,1,138.0,138.0,CPS Energy,distribution,IN SERVICE,OSM
Avery Ranch Substation,,,TX,30.491385,-97.7878844,1,138.0,138.0,Lower Colorado River Authority,distribution,IN SERVICE,OSM
Balcones Substation,,,TX,30.4610514,-97.8302013,1,138.0,138.0,Pedernales Electric Cooperative; Austin Energy,distribution,IN SERVICE,OSM
Ballinger Substation,,,TX,31.741174,-99.9445568,1,138.0,69.0,American Electric Power,transmission,IN SERVICE,OSM
Bandera Road Substation,,,TX,29.4987428,-98.6098512,1,138.0,138.0,CPS Energy,distribution,IN SERVICE,OSM
Bandera Substation,,,TX,29.7364823,-99.111568,1,138.0,12.5,Bandera Electric Cooperative,transmission,IN SERVICE,OSM
Barney Davis Substation,,,TX,27.6077243,-97.313072,1,138.0,138.0,American Electric Power,transmission,IN SERVICE,OSM
Barrilla Draw Substation,,,TX,31.2574365,-103.4307428,1,138.0,138.0,Texas-New Mexico Power,distribution,IN SERVICE,OSM
Barrilla Junction Substation,,,TX,30.9472594,-103.3653624,1,138.0,69.0,American Electric Power,transmission,IN SERVICE,OSM
Barton Substation,,,TX,30.2661168,-97.8195002,1,138.0,138.0,Austin Energy,distribution,IN SERVICE,OSM
Bastrop Substation,,,TX,30.1302704,-97.3210771,1,138.0,138.0,Bastrop Substation,distribution,IN SERVICE,OSM
Bastrop West Substation,,,TX,30.1017275,-97.3351778,1,138.0,12.5,Lower Colorado River Authority,distribution,IN SERVICE,OSM
Batesville Substation,,,TX,28.8628827,-99.608041,1,138.0,69.0,South Texas Electric Cooperative,transmission,IN SERVICE,OSM
Bay City Substation,,,TX,28.9877151,-95.9693319,1,138.0,69.0,American Electric Power; South Texas Electric Cooperative,distribution,IN SERVICE,OSM
Bear Grass Substation,,,TX,31.3769847,-96.2062868,1,138.0,138.0,Brazos Electric,transmission,IN SERVICE,OSM
Beback Substation,,,TX,29.7971016,-97.9556043,1,138.0,12.5,Bluebonnet Electric Cooperative,distribution,IN SERVICE,OSM
Beck Road Substation,,,TX,29.381971,-98.3184823,1,138.0,138.0,CPS Energy,distribution,IN SERVICE,OSM
Bedias Substation,,,TX,30.7855213,-95.9657313,1,138.0,138.0,Brazos Electric,distribution,IN SERVICE,OSM
Bee Creek Substation,,,TX,30.2938593,-97.7895171,1,138.0,138.0,Austin Energy; Pedernales Electric Cooperative,distribution,IN SERVICE,OSM
Bell County Switching Station,,,TX,31.0100367,-97.393538,1,138.0,69.0,Brazos Electric,transmission,IN SERVICE,OSM
Bellville South Substation,,,TX,29.9242682,-96.2559254,1,138.0,69.0,Lower Colorado River Authority,transmission,IN SERVICE,OSM
Bellville Substation,,,TX,29.9592914,-96.2634366,1,138.0,138.0,Lower Colorado River Authority,distribution,IN SERVICE,OSM
Ben Ficklin Substation,,,TX,31.4023602,-100.4383111,1,138.0,138.0,American Electric Power,distribution,IN SERVICE,OSM
Benjamin Substation,,,TX,33.5845785,-99.8009689,1,138.0,138.0,American Electric Power,distribution,IN SERVICE,OSM
Berea Substation,,,TX,31.3583164,-95.3185643,1,138.0,138.0,Houston County Electric Cooperative,distribution,IN SERVICE,OSM
Bergstrom Substation,,,TX,30.2190626,-97.6725994,1,138.0,138.0,Austin Energy,distribution,IN SERVICE,OSM
Bertram Substation,,,TX,30.7548787,-98.0537672,1,138.0,138.0,Pedernales Electric Cooperative,distribution,IN SERVICE,OSM
Bevo Substation,,,TX,28.4965119,-99.8401056,1,138.0,69.0,South Texas Electric Cooperative,transmission,IN SERVICE,OSM
Big Foot Substation,,,TX,29.0597324,-98.9503588,1,138.0,12.5,American Electric Power; South Texas Electric Cooperative,transmission,IN SERVICE,OSM
Big Lake Substation,,,TX,31.1849068,-101.4606409,1,138.0,69.0,American Electric Power,transmission,IN SERVICE,OSM
Big Wells Substation,,,TX,28.5653262,-99.535837,1,138.0,69.0,South Texas Electric Cooperative,distribution,IN SERVICE,OSM
Bimont Substation,,,TX,29.6476455,-95.0554348,1,138.0,138.0,Air Liquide,industrial,IN SERVICE,OSM
Biport Substation,,,TX,28.986081,-95.3385261,1,138.0,138.0,Air Liquide,industrial,IN SERVICE,OSM
Birds Of Prey Substation,,,TX,31.3741027,-103.426795,1,138.0,138.0,Texas-New Mexico Power,distribution,IN SERVICE,OSM
Birds Of Prey Tap,,,TX,31.3780024,-103.4237293,1,138.0,138.0,Texas-New Mexico Power,transmission,IN SERVICE,OSM
Bishop Substation,,,TX,30.9045037,-95.8028353,1,138.0,69.0,Brazos Electric; American Electric Power,distribution,IN SERVICE,OSM
Black Bayou Substation,,,TX,28.6424013,-96.9196591,1,138.0,138.0,American Electric Power,distribution,IN SERVICE,OSM
Blewett Substation,,,TX,29.2002387,-100.0378963,1,138.0,138.0,Lower Colorado River Authority,distribution,IN SERVICE,OSM
Blockhouse Substation,,,TX,30.5483726,-97.8382414,1,138.0,138.0,Pedernales Electric Cooperative,distribution,IN SERVICE,OSM
Blossom Substation,,,TX,29.5464422,-98.4594137,1,138.0,138.0,CPS Energy,distribution,IN SERVICE,OSM
Bluebonnet Substation,,,TX,30.1219676,-97.4343224,1,138.0,24.9,Bluebonnet Electric Cooperative,distribution,IN SERVICE,OSM
Bluffs Substation,,,TX,31.4355093,-100.5072218,1,138.0,138.0,American Electric Power,distribution,IN SERVICE,OSM
Boerne Cico Substation,,,TX,29.7711649,-98.7760782,1,138.0,12.5,Lower Colorado River Authority,distribution,IN SERVICE,OSM
Boerne Substation,,,TX,29.804201,-98.7257622,1,138.0,12.5,Lower Colorado River Authority,distribution,IN SERVICE,OSM
Bold Springs Substation,,,TX,30.7615991,-94.9518015,1,138.0,138.0,Sam Houston Electric Cooperative,distribution,IN SERVICE,OSM
Bone Springs Substation,,,TX,31.5312576,-103.3556863,1,138.0,138.0,Texas-New Mexico Power,industrial,IN SERVICE,OSM
Bone Springs Tap,,,TX,31.5446502,-103.4108453,1,138.0,138.0,Texas-New Mexico Power,transmission,IN SERVICE,OSM
Bosque Substation,,,TX,31.6858773,-97.3750445,1,138.0,138.0,Brazos Electric,distribution,IN SERVICE,OSM
Botines Substation,,,TX,27.6854295,-99.480509,1,138.0,25.0,South Texas Electric Cooperative,distribution,IN SERVICE,OSM
Boyd Substation,,,TX,35.2119602,-97.4755592,1,138.0,138.0,Brazos Electric,distribution,IN SERVICE,OSM
Brackettville Substation,,,TX,29.3246289,-100.3923513,1,138.0,12.5,Rio Grande Electric Cooperative; American Electric Power,distribution,IN SERVICE,OSM
Brand Substation,,,TX,32.7834986,-100.944338,1,138.0,138.0,Kinder Morgan; Garland Power & Light,industrial,IN SERVICE,OSM
Braunig Switchyard,,,TX,29.2580309,-98.3826843,1,138.0,138.0,CPS Energy,transmission,IN SERVICE,OSM
Brazoria Substation,,,TX,29.0622656,-95.5775752,1,138.0,12.5,Texas-New Mexico Power,transmission,IN SERVICE,OSM
Brazos Electric Substation,,,TX,33.0486304,-97.2065908,1,138.0,138.0,Brazos Electric,distribution,IN SERVICE,OSM
Brazos Wind 1 Substation,,,TX,32.9525989,-101.1295999,1,138.0,34.5,Shell,transmission,IN SERVICE,OSM
Brazos Wind 2 Substation,,,TX,32.9389087,-101.315928,1,138.0,34.5,Shell,transmission,IN SERVICE,OSM
Brenham North Substation,,,TX,30.1818243,-96.3817575,1,138.0,138.0,Lower Colorado River Authority,distribution,IN SERVICE,OSM
Brenham Substation,,,TX,30.1505894,-96.3945665,1,138.0,138.0,Lower Colorado River Authority,distribution,IN SERVICE,OSM
Briar Substation,,,TX,32.9792464,-97.5496874,1,138.0,138.0,Brazos Electric,distribution,IN SERVICE,OSM
Bridges Substation,,,TX,33.1232187,-96.8597684,1,138.0,138.0,Brazos Electric,distribution,IN SERVICE,OSM
Broaddus Substation,,,TX,31.2914061,-94.2666777,1,138.0,138.0,Deep East Texas Electric Cooperative,distribution,IN SERVICE,OSM
Broadview Substation,,,TX,29.4790491,-98.5862856,1,138.0,138.0,CPS Energy,distribution,IN SERVICE,OSM
Brodie Lane Substation,,,TX,30.1876914,-97.8482193,1,138.0,138.0,Austin Energy,distribution,IN SERVICE,OSM
Brooks Field Substation,,,TX,29.334543,-98.4497995,1,138.0,138.0,CPS Energy,distribution,IN SERVICE,OSM
Bruni Substation,,,TX,27.4355266,-98.8299803,1,138.0,69.0,American Electric Power; South Texas Electric Cooperative,distribution,IN SERVICE,OSM
Buckeye Substation,,,TX,32.8281471,-103.6075603,1,138.0,69.0,CPS Energy,industrial,IN SERVICE,OSM
Buda Substation,,,TX,30.0753952,-97.851129,1,138.0,69.0,Pedernales Electric Cooperative,transmission,IN SERVICE,OSM
Buena Vista Substation,,,TX,29.4012531,-100.9157191,1,138.0,138.0,American Electric Power,distribution,IN SERVICE,OSM
Buffalo Gap 1 & 3 Substation,,,TX,32.2993921,-100.1152427,1,138.0,138.0,AES Corporation,transmission,IN SERVICE,OSM
Buffalo Gap 2 Substation,,,TX,32.3282351,-100.207593,1,138.0,138.0,AES Corporation,transmission,IN SERVICE,OSM
Bull Creek Wind Substation,,,TX,32.9278991,-101.5842689,1,138.0,34.5,Eurus Energy,transmission,IN SERVICE,OSM
Bullick Hollow Substation,,,TX,30.4031954,-97.8569325,1,138.0,12.5,Austin Energy,distribution,IN SERVICE,OSM
Bulverde Substation,,,TX,29.7319046,-98.4412182,1,138.0,138.0,CPS Energy,distribution,IN SERVICE,OSM
Bunsen Substation,,,TX,27.7616781,-97.818324,1,138.0,138.0,American Electric Power,transmission,IN SERVICE,OSM
Burleson Substation,,,TX,30.214689,-97.7367219,1,138.0,138.0,Austin Energy,distribution,IN SERVICE,OSM
Burnet Substation,,,TX,30.7590923,-98.2374492,1,138.0,138.0,Lower Colorado River Authority,transmission,IN SERVICE,OSM
Burns Substation,,,TX,26.2190962,-97.7343315,1,138.0,138.0,South Texas Electric Cooperative,distribution,IN SERVICE,OSM
Burt Street 138Kv Substation,,,TX,30.0665861,-94.0778222,1,138.0,138.0,ExxonMobil,industrial,IN SERVICE,OSM
Butler Road Substation,,,TX,29.4889077,-95.1094308,1,138.0,12.5,Texas-New Mexico Power,distribution,IN SERVICE,OSM
Butler Substation,,,TX,30.3894531,-97.3247387,1,138.0,138.0,Bluebonnet Electric Cooperative; Brazos Electric,distribution,IN SERVICE,OSM
Butman Substation,,,TX,32.449401,-100.0739313,1,138.0,12.47,Golden Spread Electric Cooperative,distribution,IN SERVICE,OSM
Buttercup Substation,,,TX,30.4868993,-97.8238964,1,138.0,138.0,Pedernales Electric Cooperative,distribution,IN SERVICE,OSM
Cabaniss Substation,,,TX,27.7204189,-97.4377315,1,138.0,138.0,American Electric Power,distribution,IN SERVICE,OSM
Caddo Substation,,,TX,29.3795655,-94.9441281,1,138.0,138.0,Texas-New Mexico Power,transmission,IN SERVICE,OSM
Callahan Divide Wind Substation,,,TX,32.3005452,-99.9740716,1,138.0,138.0,NextEra Energy,transmission,IN SERVICE,OSM
Cameron Substation,,,TX,29.9187179,-95.6499714,1,138.0,138.0,Austin Energy,industrial,IN SERVICE,OSM
Cameron Wind Substation,,,TX,26.1956414,-97.4672044,1,138.0,34.5,IKEA,generation,IN SERVICE,OSM
Camp Bowie Substation,,,TX,31.6361659,-98.9605308,1,138.0,138.0,Lower Colorado River Authority,distribution,IN SERVICE,OSM
Camp Springs Wind 1 Substation,,,TX,32.7596452,-100.82367,1,138.0,138.0,Invenergy,transmission,IN SERVICE,OSM
Camp Springs Wind 2 Substation,,,TX,32.7593053,-100.8235689,1,138.0,138.0,Invenergy,transmission,IN SERVICE,OSM
Caney Creek Substation,,,TX,34.0133947,-96.7326457,1,138.0,138.0,Sam Houston Electric Cooperative,industrial,IN SERVICE,OSM
Cantwell Substation,,,TX,27.8114012,-97.4443703,1,138.0,138.0,Valero,industrial,IN SERVICE,OSM
Canyon Rock Substation,,,TX,32.3865373,-99.7472714,1,138.0,138.0,American Electric Power,distribution,IN SERVICE,OSM
Canyon Substation,,,TX,29.9115328,-97.9000971,1,138.0,138.0,Lower Colorado River Authority,distribution,IN SERVICE,OSM
Capitol Cement Substation,,,TX,29.5479943,-98.4196778,1,138.0,138.0,CPS Energy,industrial,IN SERVICE,OSM
Capote Substation,,,TX,29.5683694,-97.8782545,1,138.0,138.0,Guadalupe Valley Electric Cooperative,distribution,IN SERVICE,OSM
Cardinal Lane Substation,,,TX,30.2337676,-97.7688088,1,138.0,12.5,Austin Energy,distribution,IN SERVICE,OSM
Carlisle Substation,,,TX,33.5661799,-101.9876162,1,138.0,115.0,South Plains Electric Cooperative; Sam Houston Electric Cooperative,distribution,IN SERVICE,OSM
Carlos Substation,,,TX,30.5929156,-96.1000618,1,138.0,138.0,Brazos Electric,industrial,IN SERVICE,OSM
Carlos Switching Station,,,TX,30.6160773,-96.1618461,1,138.0,138.0,Brazos Electric,transmission,IN SERVICE,OSM
Carson Creek Substation,,,TX,30.2031872,-97.6871108,1,138.0,138.0,Austin Energy,distribution,IN SERVICE,OSM
Castell Substation,,,TX,30.7383742,-98.9632146,1,138.0,12.5,Central Texas Electric Cooperative,distribution,IN SERVICE,OSM
Castillo Substation,,,TX,31.2537414,-102.3061815,1,138.0,138.0,Lower Colorado River Authority,transmission,IN SERVICE,OSM
Castle Gap Substation,,,TX,31.1157152,-102.2950521,1,138.0,138.0,American Electric Power,distribution,IN SERVICE,OSM
Castle Hills Substation,,,TX,29.5385134,-98.5258173,1,138.0,138.0,CPS Energy,distribution,IN SERVICE,OSM
Castle Substation,,,TX,32.9213526,-96.6141921,1,138.0,138.0,Garland Power & Light,distribution,IN SERVICE,OSM
Castroville Substation,,,TX,29.3587705,-98.8159074,1,138.0,69.0,CPS Energy; South Texas Electric Cooperative,distribution,IN SERVICE,OSM
Caterpillar Substation,,,TX,29.5792794,-97.9971938,1,138.0,138.0,Guadalupe Valley Electric Cooperative,industrial,IN SERVICE,OSM
Cauthorn Substation,,,TX,30.3047826,-100.6748156,1,138.0,24.9,Southwest Texas Electric Cooperative,distribution,IN SERVICE,OSM
Cayote Substation,,,TX,31.8144658,-97.3964502,1,138.0,138.0,Brazos Electric,distribution,IN SERVICE,OSM
Cedar Hill Substation,,,TX,30.3139798,-97.3794245,1,138.0,138.0,Lower Colorado River Authority,distribution,IN SERVICE,OSM
Cedar Hill Switching Station,,,TX,32.0144134,-100.7389611,1,138.0,69.0,American Electric Power,transmission,IN SERVICE,OSM
Cedar Valley Substation,,,TX,30.2270027,-97.952461,1,138.0,138.0,Pedernales Electric Cooperative; Brazos Electric,distribution,IN SERVICE,OSM
Cedro Hill Substation,,,TX,27.5638072,-98.9200978,1,138.0,34.5,Cedro Hill Wind,transmission,IN SERVICE,OSM
Celanese Bishop Substation,,,TX,27.5605725,-97.8303562,1,138.0,138.0,American Electric Power,industrial,IN SERVICE,OSM
Cemex Substation,,,TX,29.6749932,-98.1808078,1,138.0,4.2,New Braunfels Utilities,industrial,IN SERVICE,OSM
Center Point Substation,,,TX,32.9351162,-97.5484499,1,138.0,138.0,Tri-County Electric COOP,distribution,IN SERVICE,OSM
Centerville Substation,,,TX,32.8708343,-96.6345855,1,138.0,138.0,Garland Power & Light,distribution,IN SERVICE,OSM
Central Avenue Substation,,,TX,25.9538541,-97.4455255,1,138.0,138.0,South Texas Electric Cooperative,distribution,IN SERVICE,OSM
Central Heights Substation,,,TX,31.7209874,-94.6377111,1,138.0,138.0,Deep East Texas Electric Cooperative,distribution,IN SERVICE,OSM
Century Plant Substation,,,TX,30.607472,-102.5808569,1,138.0,138.0,Occidental Petroleum; Texas-New Mexico Power,industrial,IN SERVICE,OSM
Champlin - Citgo West Substation,,,TX,27.8098993,-97.496753,1,138.0,138.0,American Electric Power,industrial,IN SERVICE,OSM
Chappel Hill Substation,,,TX,30.1385073,-96.3254195,1,138.0,138.0,Bluebonnet Electric Cooperative,distribution,IN SERVICE,OSM
Chavaneaux Road Substation,,,TX,29.3350512,-98.5103843,1,138.0,138.0,CPS Energy,distribution,IN SERVICE,OSM
Cheapside Substation,,,TX,29.3089862,-97.3953221,1,138.0,138.0,Guadalupe Valley Electric Cooperative,distribution,IN SERVICE,OSM
Cherokee Switching Station,,,TX,29.3671312,-94.9158257,1,138.0,69.0,Texas-New Mexico Power,transmission,IN SERVICE,OSM
Cherry Creek Substation,,,TX,35.2162338,-97.5111763,1,138.0,69.0,American Electric Power,distribution,IN SERVICE,OSM
Chief Brady Substation,,,TX,30.5917973,-97.6958651,1,138.0,138.0,Lower Colorado River Authority,distribution,IN SERVICE,OSM
China Spring Substation,,,TX,31.6716612,-97.303375,1,138.0,138.0,Brazos Electric,distribution,IN SERVICE,OSM
Choate Substation,,,TX,28.8155136,-97.7406401,1,138.0,69.0,South Texas Electric Cooperative,transmission,IN SERVICE,OSM
Chocolate Bayou Substation,,,TX,28.6855278,-96.9192244,1,138.0,138.0,American Electric Power,distribution,IN SERVICE,OSM
Choctaw Substation,,,TX,34.75316,-97.6933451,1,138.0,69.0,Texas-New Mexico Power,industrial,IN SERVICE,OSM
Choke Canyon Substation,,,TX,28.4535,-98.2802764,1,138.0,69.0,South Texas Electric Cooperative; American Electric Power,distribution,IN SERVICE,OSM
Chulie Substation,,,TX,29.5112259,-98.4771356,1,138.0,138.0,CPS Energy,distribution,IN SERVICE,OSM
Church Substation,,,TX,32.3671438,-99.5255088,1,138.0,138.0,Golden Spread Electric Cooperative,distribution,IN SERVICE,OSM
Cibolo Creek Substation,,,TX,29.6648613,-98.3852304,1,138.0,138.0,CPS Energy,distribution,IN SERVICE,OSM
Cibolo Substation,,,TX,29.5782233,-98.2073018,1,138.0,138.0,Guadalupe Valley Electric Cooperative,transmission,IN SERVICE,OSM
Cincinnati Substation,,,TX,30.8496157,-95.5191028,1,138.0,138.0,Brazos Electric,distribution,IN SERVICE,OSM
Citgo North Oak Park Substation,,,TX,27.8142737,-97.4270482,1,138.0,138.0,Citgo,transmission,IN SERVICE,OSM
Clarkwood Substation,,,TX,27.8203134,-97.5353866,1,138.0,138.0,American Electric Power,distribution,IN SERVICE,OSM
Clovis Substation,,,TX,34.3894819,-103.1612161,1,138.0,34.5,Southern Power,distribution,IN SERVICE,OSM
Cmc/Smi Substation,,,TX,29.578316,-98.0323264,1,138.0,138.0,Guadalupe Valley Electric Cooperative,industrial,IN SERVICE,OSM
Cochise Substation,,,TX,31.5139534,-103.4520694,1,138.0,138.0,Texas-New Mexico Power,distribution,IN SERVICE,OSM
Coffee Port Substation,,,TX,25.9380369,-97.4262992,1,138.0,138.0,American Electric Power,distribution,IN SERVICE,OSM
Cold Spring Substation,,,TX,30.5687207,-95.1036618,1,138.0,138.0,Sam Houston Electric Cooperative,distribution,IN SERVICE,OSM
Coleman Substation,,,TX,31.8145429,-99.4040548,1,138.0,138.0,American Electric Power,distribution,IN SERVICE,OSM
Coley Creek Substation,,,TX,30.4950073,-94.9667416,1,138.0,138.0,Sam Houston Electric Cooperative,distribution,IN SERVICE,OSM
Coliseum Substation,,,TX,29.4326262,-98.4443385,1,138.0,138.0,CPS Energy,distribution,IN SERVICE,OSM
College Station Switching Station,,,TX,30.6277246,-96.2942915,1,138.0,138.0,City of College Station,transmission,IN SERVICE,OSM
Collie Field Substation,,,TX,31.4146597,-103.4693901,1,138.0,138.0,Texas-New Mexico Power,distribution,IN SERVICE,OSM
Collie Field Tap,,,TX,31.3826398,-103.4620137,1,138.0,138.0,Texas-New Mexico Power,transmission,IN SERVICE,OSM
Colorado Bend Substation,,,TX,29.2891463,-96.0689187,1,138.0,138.0,Exelon,transmission,IN SERVICE,OSM
Colorado River Municipal Water District #2 Substation,,,TX,31.5508658,-100.1773659,1,138.0,4.16,Colorado River Municipal Water District,industrial,IN SERVICE,OSM
Colorado River Municipal Water District #8 Substation,,,TX,31.8643969,-101.9501896,1,138.0,4.16,Colorado River Municipal Water District,industrial,IN SERVICE,OSM
Colorado Substation,,,TX,29.4671681,-96.6198048,1,138.0,138.0,San Bernard Electric Cooperative,distribution,IN SERVICE,OSM
Colton Substation,,,TX,30.1390534,-97.6789233,1,138.0,138.0,Lower Colorado River Authority,distribution,IN SERVICE,OSM
Comal Street Substation,,,TX,29.4215735,-98.508585,1,138.0,138.0,CPS Energy,distribution,IN SERVICE,OSM
Comal Substation,,,TX,29.7068202,-98.1349886,1,138.0,12.5,New Braunfels Utilities,transmission,IN SERVICE,OSM
Comanche,,,TX,34.5436294,-98.3224236,1,138.0,138.0,Public Service Company of Oklahoma,transmission,IN SERVICE,OSM
Comanche Switching Station,,,TX,29.3732604,-94.9148625,1,138.0,138.0,Texas-New Mexico Power,transmission,IN SERVICE,OSM
Comfort Substation,,,TX,29.9779976,-98.9032017,1,138.0,138.0,Lower Colorado River Authority,transmission,IN SERVICE,OSM
Commons Ford Substation,,,TX,30.3152578,-97.8547583,1,138.0,138.0,Austin Energy,distribution,IN SERVICE,OSM
Comstock Substation,,,TX,29.7474583,-101.1394552,1,138.0,138.0,American Electric Power; Rio Grande Electric Cooperative,distribution,IN SERVICE,OSM
Conoco Substation,,,TX,30.6392413,-102.943661,1,138.0,69.0,Rio Grande Electric Cooperative; American Electric Power,industrial,IN SERVICE,OSM
Conoco-Chittam Ranch Substation,,,TX,28.6964277,-100.1972292,1,138.0,12.5,American Electric Power,distribution,IN SERVICE,OSM
Copperas Cove Substation,,,TX,31.1097753,-97.9609124,1,138.0,138.0,Pedernales Electric Cooperative,distribution,IN SERVICE,OSM
Coronado Substation,,,TX,30.7500303,-98.4165757,1,138.0,69.0,Lower Colorado River Authority,transmission,IN SERVICE,OSM
Corrigan Substation,,,TX,30.9925568,-94.8037203,1,138.0,138.0,Sam Houston Electric Cooperative,distribution,IN SERVICE,OSM
Cotton Belt Substation,,,TX,31.427909,-97.3175104,1,138.0,138.0,Brazos Electric,distribution,IN SERVICE,OSM
Cotulla Substation,,,TX,28.4481734,-99.2549959,1,138.0,69.0,American Electric Power; South Texas Electric Cooperative,distribution,IN SERVICE,OSM
Country Club Substation,,,TX,32.4021549,-99.7430436,1,138.0,138.0,American Electric Power,distribution,IN SERVICE,OSM
Crane East Substation,,,TX,31.4331124,-102.13168,1,138.0,138.0,Lower Colorado River Authority,distribution,IN SERVICE,OSM
Crane Substation,,,TX,31.4098418,-102.3386148,1,138.0,69.0,American Electric Power; Lower Colorado River Authority,transmission,IN SERVICE,OSM
Crane'S Mill Substation,,,TX,29.8524527,-98.2832946,1,138.0,138.0,Pedernales Electric Cooperative,distribution,IN SERVICE,OSM
Crawford Substation,,,TX,31.5402084,-97.4089206,1,138.0,138.0,Brazos Electric,distribution,IN SERVICE,OSM
Crestonio Substation,,,TX,27.3653856,-98.5978172,1,138.0,138.0,American Electric Power,distribution,IN SERVICE,OSM
Crist Road Substation,,,TX,32.937148,-96.6248783,1,138.0,138.0,Garland Power & Light,distribution,IN SERVICE,OSM
Crutchfield Substation,,,TX,30.5844559,-95.9341285,1,138.0,138.0,Brazos Electric,distribution,IN SERVICE,OSM
Cryo Substation,,,TX,31.0468014,-103.72069,1,138.0,138.0,American Electric Power,distribution,IN SERVICE,OSM
Cuero Hydro Substation,,,TX,29.1294505,-97.3080004,1,138.0,138.0,Lower Colorado River Authority,transmission,IN SERVICE,OSM
Cuero Substation,,,TX,29.1074722,-97.2724379,1,138.0,69.0,Lower Colorado River Authority,transmission,IN SERVICE,OSM
Culberson Substation,,,TX,31.7577803,-104.3046525,1,138.0,138.0,Lower Colorado River Authority,transmission,IN SERVICE,OSM
Cushman Substation,,,TX,29.5742245,-97.9456756,1,138.0,12.5,Lower Colorado River Authority,distribution,IN SERVICE,OSM
Custer Substation,,,TX,33.1598323,-96.7524443,1,138.0,138.0,Brazos Electric,distribution,IN SERVICE,OSM
Cypress Creek Substation,,,TX,29.9591933,-98.913327,1,138.0,12.5,Bandera Electric Cooperative,distribution,IN SERVICE,OSM
Daffan Gin Substation,,,TX,30.3096565,-97.6154059,1,138.0,138.0,Austin Energy,distribution,IN SERVICE,OSM
Danevang Substation,,,TX,29.0647396,-96.1923266,1,138.0,69.0,South Texas Electric Cooperative,distribution,IN SERVICE,OSM
Dansby Substation,,,TX,30.7221456,-96.4588366,1,138.0,69.0,Bryan Texas Utilities,transmission,IN SERVICE,OSM
De Zavala Road Substation,,,TX,29.5715074,-98.5663787,1,138.0,138.0,CPS Energy,distribution,IN SERVICE,OSM
Deanville Substation,,,TX,30.427126,-96.8012996,1,138.0,138.0,Bluebonnet Electric Cooperative,distribution,IN SERVICE,OSM
Decker Switchyard,,,TX,30.3049807,-97.6141505,1,138.0,138.0,Austin Energy,transmission,IN SERVICE,OSM
Deer Creek Substation,,,TX,29.5552442,-97.7837216,1,138.0,69.0,Lower Colorado River Authority,transmission,IN SERVICE,OSM
Deer Lake Substation,,,TX,30.3114361,-95.6253454,1,138.0,138.0,Brazos Electric,distribution,IN SERVICE,OSM
Del Mar Substation,,,TX,27.5761399,-99.4662389,1,138.0,138.0,American Electric Power,distribution,IN SERVICE,OSM
Del Rio Substation,,,TX,29.3670389,-100.8932854,1,138.0,138.0,American Electric Power,distribution,IN SERVICE,OSM
Desert Sky Wind Substation,,,TX,30.9159585,-102.1096819,1,138.0,138.0,American Electric Power,transmission,IN SERVICE,OSM
Dessau Substation,,,TX,30.3734836,-97.643015,1,138.0,138.0,Austin Energy,industrial,IN SERVICE,OSM
Devil'S Hill Substation,,,TX,29.9223454,-98.4123381,1,138.0,69.0,Pedernales Electric Cooperative,distribution,IN SERVICE,OSM
Devils River Substation,,,TX,29.8394899,-100.7967421,1,138.0,138.0,Rio Grande Electric Cooperative,distribution,IN SERVICE,OSM
Diboll Substation,,,TX,31.22443,-94.7163703,1,138.0,138.0,Sam Houston Electric Cooperative,distribution,IN SERVICE,OSM
Dickinson Substation,,,TX,29.4611363,-95.0569173,1,138.0,12.5,Texas-New Mexico Power,distribution,IN SERVICE,OSM
Dilley Switching Station,,,TX,28.6687916,-99.2051217,1,138.0,69.0,American Electric Power,transmission,IN SERVICE,OSM
Dimmit Substation,,,TX,28.5091892,-99.8736653,1,138.0,138.0,American Electric Power,distribution,IN SERVICE,OSM
Ding Dong Substation,,,TX,30.9873708,-97.7666802,1,138.0,138.0,Brazos Electric,distribution,IN SERVICE,OSM
Dobbin Substation,,,TX,30.3511747,-95.7815511,1,138.0,138.0,Brazos Electric,distribution,IN SERVICE,OSM
Dobbyville Substation,,,TX,30.9525578,-98.2626321,1,138.0,138.0,Pedernales Electric Cooperative,distribution,IN SERVICE,OSM
Dorrell Substation,,,TX,30.5244202,-95.3888255,1,138.0,138.0,Sam Houston Electric Cooperative,distribution,IN SERVICE,OSM
Dowling Road Substation,,,TX,30.5857361,-96.3333817,1,138.0,138.0,City of College Station,distribution,IN SERVICE,OSM
Downie Substation,,,TX,29.2269671,-99.6995443,1,138.0,69.0,South Texas Electric Cooperative,distribution,IN SERVICE,OSM
Dresden Drive Substation,,,TX,29.4986732,-98.5082673,1,138.0,138.0,CPS Energy,distribution,IN SERVICE,OSM
Drilco Substation,,,TX,29.9643881,-95.3830004,1,138.0,138.0,Drilco,industrial,IN SERVICE,OSM
Dripping Springs Substation,,,TX,30.1737579,-98.0837344,1,138.0,138.0,Pedernales Electric Cooperative,distribution,IN SERVICE,OSM
Dupont Pp1 Substation,,,TX,27.8803854,-97.24746,1,138.0,138.0,Chemours,industrial,IN SERVICE,OSM
Dupont Switching Station,,,TX,27.9002356,-97.2468201,1,138.0,138.0,American Electric Power,transmission,IN SERVICE,OSM
E. Babe Smith Substation,,,TX,30.9916097,-98.198205,1,138.0,138.0,Pedernales Electric Cooperative,distribution,IN SERVICE,OSM
Eagle Creek Substation,,,TX,32.8563945,-104.3901368,1,138.0,69.0,CPS Energy,distribution,IN SERVICE,OSM
Eagle Hydro Substation,,,TX,28.8297505,-100.5520484,1,138.0,138.0,American Electric Power,generation,IN SERVICE,OSM
Eagle Pass Substation,,,TX,28.7160315,-100.4904126,1,138.0,138.0,American Electric Power,distribution,IN SERVICE,OSM
East Munday Substation,,,TX,33.4533841,-99.6030772,1,138.0,69.0,American Electric Power,transmission,IN SERVICE,OSM
East Raymondville Substation,,,TX,26.467109,-97.7154304,1,138.0,138.0,South Texas Electric Cooperative,distribution,IN SERVICE,OSM
East Rio Hondo Substation,,,TX,26.2275262,-97.5340353,1,138.0,138.0,South Texas Electric Cooperative,distribution,IN SERVICE,OSM
East Substation,,,TX,30.6594458,-96.2989477,1,138.0,69.0,Bryan Texas Utilities,transmission,IN SERVICE,OSM
Ec Mornhinweg Substation,,,TX,29.6582279,-98.202872,1,138.0,12.5,New Braunfels Utilities,distribution,IN SERVICE,OSM
Eclipse Substation,,,TX,29.3239514,-100.3920398,1,138.0,34.5,Consolidated Edison,transmission,IN SERVICE,OSM
Ector County Energy Center Substation,,,TX,32.0699552,-102.5860335,1,138.0,138.0,Invenergy,transmission,IN SERVICE,OSM
Ed Bluestein Substation,,,TX,30.2705235,-97.6621007,1,138.0,138.0,Austin Energy,industrial,IN SERVICE,OSM
Edna Substation,,,TX,28.9565828,-96.6461209,1,138.0,69.0,American Electric Power; South Texas Electric Cooperative,distribution,IN SERVICE,OSM
El Campo Substation,,,TX,29.1869921,-96.2674242,1,138.0,69.0,American Electric Power; South Texas Electric Cooperative,distribution,IN SERVICE,OSM
Eldorado Live Oak Substation,,,TX,30.8780456,-100.5700719,1,138.0,69.0,American Electric Power,transmission,IN SERVICE,OSM
Elmendorf Substation,,,TX,29.270218,-98.3221644,1,138.0,138.0,CPS Energy,distribution,IN SERVICE,OSM
Elroy Substation,,,TX,30.1412902,-97.6243427,1,138.0,138.0,Austin Energy,distribution,IN SERVICE,OSM
Encinal Substation,,,TX,28.0466754,-99.3574469,1,138.0,138.0,American Electric Power,distribution,IN SERVICE,OSM
Encino Park Substation,,,TX,29.6156122,-98.4696589,1,138.0,138.0,CPS Energy,distribution,IN SERVICE,OSM
Engle Substation,,,TX,29.674534,-97.0131056,1,138.0,138.0,Lower Colorado River Authority,distribution,IN SERVICE,OSM
Ennis Creek Substation,,,TX,32.8410497,-100.9239224,1,138.0,138.0,Kinder Morgan,industrial,IN SERVICE,OSM
Escarpment Substation,,,TX,30.1799834,-97.8946149,1,138.0,138.0,Lower Colorado River Authority,distribution,IN SERVICE,OSM
Escondido Substation,,,TX,28.7284739,-100.4744525,1,138.0,138.0,American Electric Power,distribution,IN SERVICE,OSM
Esmeralda Substation,,,TX,30.9696017,-101.3094807,1,138.0,138.0,American Electric Power,transmission,IN SERVICE,OSM
Esperanza Substation,,,TX,29.8005819,-98.6650113,1,138.0,138.0,Lower Colorado River Authority,distribution,IN SERVICE,OSM
Estes Station,,,TX,32.3658655,-99.5256373,1,138.0,138.0,American Electric Power,transmission,IN SERVICE,OSM
Etoile Substation,,,TX,31.3365039,-94.3977489,1,138.0,138.0,Deep East Texas Electric Cooperative,distribution,IN SERVICE,OSM
Etp Substation,,,TX,29.1082424,-96.5360227,1,138.0,138.0,South Texas Electric Cooperative,switching,IN SERVICE,OSM
Evant Substation,,,TX,31.433615,-98.1731642,1,138.0,138.0,Lower Colorado River Authority,distribution,IN SERVICE,OSM
Evergreen Switching Station,,,TX,30.5322086,-95.4624407,1,138.0,138.0,Sam Houston Electric Cooperative,transmission,IN SERVICE,OSM
Exxon Sharon Ridge Substation,,,TX,32.629021,-101.1494917,1,138.0,138.0,Exxon,industrial,IN SERVICE,OSM
Exxon Substation,,,TX,29.7496972,-95.0195303,1,138.0,138.0,Exxon,industrial,IN SERVICE,OSM
F. Yturria Substation,,,TX,26.6409829,-97.7656009,1,138.0,138.0,South Texas Electric Cooperative,distribution,IN SERVICE,OSM
Fair Oaks Ranch Substation,,,TX,29.7327954,-98.6123836,1,138.0,34.5,CPS Energy,distribution,IN SERVICE,OSM
Fair Oaks Substation,,,TX,29.7949266,-98.5933588,1,138.0,24.9,Pedernales Electric Cooperative,distribution,IN SERVICE,OSM
Fairdale Substation,,,TX,32.9138613,-96.6615972,1,138.0,138.0,Garland Power & Light,distribution,IN SERVICE,OSM
Fairland Substation,,,TX,30.6452626,-98.2581387,1,138.0,138.0,Pedernales Electric Cooperative,distribution,IN SERVICE,OSM
Falfurrias Substation,,,TX,27.242329,-98.1420877,1,138.0,69.0,American Electric Power,transmission,IN SERVICE,OSM
Falls City Substation,,,TX,29.0105278,-97.9858253,1,138.0,138.0,CPS Energy,distribution,IN SERVICE,OSM
Farrar Substation,,,TX,31.3841504,-96.2819595,1,138.0,138.0,Brazos Electric,distribution,IN SERVICE,OSM
Faulkner Substation,,,TX,31.261031,-103.7931847,1,138.0,138.0,Texas-New Mexico Power,distribution,IN SERVICE,OSM
Fayette Plant 138 Kv Substation,,,TX,29.9123189,-96.7551456,1,138.0,138.0,Lower Colorado River Authority,transmission,IN SERVICE,OSM
Fayette River Pump Substation,,,TX,29.8684473,-96.775424,1,138.0,138.0,Lower Colorado River Authority,industrial,IN SERVICE,OSM
Ferguson Substation,,,TX,30.5555486,-98.371282,1,138.0,138.0,Lower Colorado River Authority,transmission,IN SERVICE,OSM
Fermi Substation,,,TX,29.7697421,-100.7875274,1,138.0,34.5,Akuo,transmission,IN SERVICE,OSM
Fern Street Switchyard,,,TX,29.4047923,-98.4795029,1,138.0,138.0,CPS Energy,transition,IN SERVICE,OSM
Filter Plant Substation,,,TX,25.9253272,-97.4653411,1,138.0,138.0,Brownsville Public Utilities Board,distribution,IN SERVICE,OSM
Firewheel Substation,,,TX,32.9812904,-96.6403174,1,138.0,138.0,Garland Power & Light,distribution,IN SERVICE,OSM
Fischer Substation,,,TX,29.9331522,-98.2057872,1,138.0,138.0,Pedernales Electric Cooperative,distribution,IN SERVICE,OSM
Fish Creek Substation,,,TX,30.2973287,-95.5477712,1,138.0,138.0,Brazos Electric,distribution,IN SERVICE,OSM
Fiskville Substation,,,TX,30.36215,-97.6831083,1,138.0,138.0,Austin Energy,distribution,IN SERVICE,OSM
Five Points Substation,,,TX,29.4373425,-98.5068294,1,138.0,138.0,CPS Energy,distribution,IN SERVICE,OSM
Flat Rock Substation,,,TX,32.8705027,-97.5976923,1,138.0,138.0,Brazos Electric,distribution,IN SERVICE,OSM
Flat Top Substation,,,TX,31.1995472,-103.3595185,1,138.0,138.0,Texas-New Mexico Power,distribution,IN SERVICE,OSM
Flatonia Substation,,,TX,29.6780571,-97.1058498,1,138.0,69.0,Lower Colorado River Authority,transmission,IN SERVICE,OSM
Flatrock Substation,,,TX,30.5097954,-98.2059858,1,138.0,138.0,Pedernales Electric Cooperative,distribution,IN SERVICE,OSM
Floresville Substation,,,TX,29.1411803,-98.1542362,1,138.0,138.0,CPS Energy,distribution,IN SERVICE,OSM
Fluvanna Wind 1 Substation,,,TX,32.8860839,-101.0946317,1,138.0,34.5,Terna Energy,transmission,IN SERVICE,OSM
Fm 237 Yorktown Substation,,,TX,28.9879692,-97.4809506,1,138.0,138.0,Guadalupe Valley Electric Cooperative,distribution,IN SERVICE,OSM
Fm 524 Substation,,,TX,29.0643135,-95.7351935,1,138.0,69.0,Texas-New Mexico Power,transmission,IN SERVICE,OSM
Fm 802 Substation,,,TX,25.9509455,-97.4921144,1,138.0,138.0,Brownsville Public Utilities Board,distribution,IN SERVICE,OSM
Fork Creek Substation,,,TX,30.8832809,-94.2937194,1,138.0,138.0,SHECO,transmission,IN SERVICE,OSM
Formosa Plastics Cfb Substation,,,TX,28.6512472,-96.540011,1,138.0,138.0,Formosa Plastics,transmission,IN SERVICE,OSM
Formosa Plastics Switching Station,,,TX,28.6862625,-96.551185,1,138.0,138.0,Formosa Plastics,transmission,IN SERVICE,OSM
Formosa Substation,,,TX,28.6836299,-96.5510875,1,138.0,69.0,American Electric Power,transmission,IN SERVICE,OSM
Fort Brown Substation,,,TX,25.8993568,-97.4681356,1,138.0,138.0,Brownsville Public Utilities Board,distribution,IN SERVICE,OSM
Fort Chadbourne Substation,,,TX,32.0170238,-100.2745218,1,138.0,138.0,American Electric Power,distribution,IN SERVICE,OSM
Fort Lancaster,,,TX,30.6635514,-101.778673,1,138.0,69.0,American Electric Power,transmission,IN SERVICE,OSM
Fort Mason Substation,,,TX,30.7377341,-99.2317666,1,138.0,69.0,Lower Colorado River Authority,transmission,IN SERVICE,OSM
Fort Phantom Switchyard,,,TX,32.5826099,-99.6823378,1,138.0,138.0,American Electric Power,transmission,IN SERVICE,OSM
Fort Sam Substation,,,TX,29.4553796,-98.4379455,1,138.0,138.0,CPS Energy,distribution,IN SERVICE,OSM
Fort Stockton Plant Substation,,,TX,30.9272681,-102.9551948,1,138.0,69.0,American Electric Power,transmission,IN SERVICE,OSM
Fort Worth Substation,,,TX,33.1617684,-97.1585252,1,138.0,138.0,DME,distribution,IN SERVICE,OSM
Four Corners Substation,,,TX,28.8716126,-97.1644699,1,138.0,138.0,South Texas Electric Cooperative,distribution,IN SERVICE,OSM
Franklins Camp Substation,,,TX,28.928147,-95.5639012,1,138.0,69.0,South Texas Electric Cooperative,transmission,IN SERVICE,OSM
Fratt Substation,,,TX,29.5485314,-98.3431154,1,138.0,138.0,CPS Energy,distribution,IN SERVICE,OSM
Fredericksburg Road Substation,,,TX,29.5029057,-98.5599021,1,138.0,138.0,CPS Energy,distribution,IN SERVICE,OSM
Fredericksburg Substation,,,TX,30.2597239,-98.8851653,1,138.0,69.0,Lower Colorado River Authority,transmission,IN SERVICE,OSM
Freeway Park Substation,,,TX,29.4039712,-94.9951506,1,138.0,138.0,Texas-New Mexico Power,transmission,IN SERVICE,OSM
Freiheit Road Substation,,,TX,29.7039908,-98.0859011,1,138.0,12.5,New Braunfels Utilities,distribution,IN SERVICE,OSM
Frelsburg Substation,,,TX,29.8357033,-96.6158979,1,138.0,138.0,San Benard Electric Cooperative,distribution,IN SERVICE,OSM
Friend Ranch Substation,,,TX,30.708033,-101.1431002,1,138.0,69.0,American Electric Power,transmission,IN SERVICE,OSM
Friendship Substation,,,TX,30.1668323,-97.9452067,1,138.0,138.0,Pedernales Electric Cooperative,distribution,IN SERVICE,OSM
Friendswood Substation,,,TX,29.4991487,-95.2013365,1,138.0,12.5,Texas-New Mexico Power,distribution,IN SERVICE,OSM
Frisco Substation,,,TX,33.1818275,-96.8316271,1,138.0,138.0,Brazos Electric,distribution,IN SERVICE,OSM
Gabriel Substation,,,TX,30.6672682,-97.6608735,1,138.0,12.5,Lower Colorado River Authority,transmission,IN SERVICE,OSM
Ganado Substation,,,TX,29.0131711,-96.5027179,1,138.0,69.0,American Electric Power; South Texas Electric Cooperative; Enel Green Power,distribution,IN SERVICE,OSM
Garza Substation,,,TX,33.1862714,-101.3904968,1,138.0,4.16,Xcel Energy; Golden Spread Electric Cooperative; American Electric Power,distribution,IN SERVICE,OSM
Gateway Substation,,,TX,27.5134789,-99.4442097,1,138.0,138.0,American Electric Power,distribution,IN SERVICE,OSM
Gay Hill Substation,,,TX,30.2711206,-96.4716547,1,138.0,138.0,Bluebonnet Electric Cooperative,distribution,IN SERVICE,OSM
George West Substation,,,TX,28.3309133,-98.0732043,1,138.0,69.0,South Texas Electric Cooperative; American Electric Power,distribution,IN SERVICE,OSM
George West Switching Station,,,TX,28.4035514,-98.1940069,1,138.0,69.0,South Texas Electric Cooperative,transmission,IN SERVICE,OSM
Georgetown East Substation,,,TX,30.6237221,-97.6449126,1,138.0,138.0,Lower Colorado River Authority,distribution,IN SERVICE,OSM
Georgetown South Substation,,,TX,30.5885138,-97.6832332,1,138.0,138.0,Lower Colorado River Authority,distribution,IN SERVICE,OSM
Georgetown Substation,,,TX,30.6324914,-97.6871118,1,138.0,138.0,Lower Colorado River Authority,distribution,IN SERVICE,OSM
Geronimo Substation,,,TX,29.6274521,-97.9706255,1,138.0,138.0,Guadalupe Valley Electric Cooperative,distribution,IN SERVICE,OSM
Giddings Substation,,,TX,30.1841033,-96.9510858,1,138.0,138.0,Lower Colorado River Authority,distribution,IN SERVICE,OSM
Gila Substation,,,TX,27.8197488,-97.4213144,1,138.0,69.0,American Electric Power,transmission,IN SERVICE,OSM
Gillespie Substation,,,TX,33.4203161,-99.7517845,1,138.0,69.0,American Electric Power; Lower Colorado River Authority,distribution,IN SERVICE,OSM
Gillette Substation,,,TX,29.2327395,-97.7278532,1,138.0,138.0,Lower Colorado River Authority,transmission,IN SERVICE,OSM
Glasscock Substation,,,TX,30.7395968,-97.6940777,1,138.0,138.0,Lower Colorado River Authority,distribution,IN SERVICE,OSM
Glidden Substation,,,TX,29.6969144,-96.5718684,1,138.0,69.0,Lower Colorado River Authority; San Bernard Electric Cooperative,transmission,IN SERVICE,OSM
Goat Creek Substation,,,TX,30.0797854,-99.2102278,1,138.0,138.0,Lower Colorado River Authority,distribution,IN SERVICE,OSM
Goforth Substation,,,TX,29.9925656,-97.8415341,1,138.0,138.0,Pedernales Electric Cooperative,distribution,IN SERVICE,OSM
Gohlke Substation,,,TX,28.7464532,-96.7331978,1,138.0,138.0,American Electric Power,distribution,IN SERVICE,OSM
Goldthwaite Substation,,,TX,31.4310583,-98.5662729,1,138.0,138.0,Lower Colorado River Authority,transmission,IN SERVICE,OSM
Goldthwaite Wind Substation,,,TX,31.4149539,-98.5118794,1,138.0,138.0,Invenergy,generation,IN SERVICE,OSM
Goodrich Substation,,,TX,30.620325,-94.9679916,1,138.0,138.0,Sam Houston Electric Cooperative,distribution,IN SERVICE,OSM
Gpi Substation,,,TX,29.6770593,-98.1779746,1,138.0,138.0,New Braunfels Utilities,transmission,IN SERVICE,OSM
Grandview Substation,,,TX,29.4049694,-98.4442747,1,138.0,138.0,CPS Energy,distribution,IN SERVICE,OSM
Grandview Tmpp Substation,,,TX,32.3366367,-97.2401708,1,138.0,138.0,TMPP,distribution,IN SERVICE,OSM
Granite Mountain Substation,,,TX,30.5880273,-98.2937999,1,138.0,138.0,Pedernales Electric Cooperative,distribution,IN SERVICE,OSM
Grapeland Substation,,,TX,31.5085079,-95.4584493,1,138.0,138.0,Houston County Electric Cooperative,distribution,IN SERVICE,OSM
Graphine Mine Substation,,,TX,30.8065774,-98.3532818,1,138.0,138.0,Pedernales Electric Cooperative,distribution,IN SERVICE,OSM
Green Mountain Substation,,,TX,29.6204259,-98.3328713,1,138.0,138.0,CPS Energy,distribution,IN SERVICE,OSM
Greenbelt Substation,,,TX,29.3796265,-94.9345821,1,138.0,138.0,Texas-New Mexico Power,transmission,IN SERVICE,OSM
Greens Prairie Substation,,,TX,30.5542392,-96.2577568,1,138.0,138.0,City of College Station; Bryan Texas Utilities,distribution,IN SERVICE,OSM
Gregory Switchyard,,,TX,27.8889286,-97.2575287,1,138.0,138.0,NRG Energy,transmission,IN SERVICE,OSM
Grissom Road Substation,,,TX,29.4764484,-98.6489325,1,138.0,138.0,CPS Energy,distribution,IN SERVICE,OSM
Grove Substation,,,TX,30.216481,-97.7109706,1,138.0,138.0,Austin Energy,industrial,IN SERVICE,OSM
Guy Burks Substation,,,TX,30.1481392,-96.4228706,1,138.0,138.0,Bluebonnet Electric Cooperative,distribution,IN SERVICE,OSM
Haine Drive Substation,,,TX,26.1671944,-97.6507857,1,138.0,138.0,American Electric Power,distribution,IN SERVICE,OSM
Haisley Substation,,,TX,28.0949434,-97.4936,1,138.0,138.0,American Electric Power,distribution,IN SERVICE,OSM
Hallettsville Substation,,,TX,29.4287838,-96.9872783,1,138.0,69.0,Lower Colorado River Authority; Guadalupe Valley Electric Cooperative,transmission,IN SERVICE,OSM
Hallsburg Substation,,,TX,31.5242687,-97.0056924,1,138.0,138.0,Brazos Electric,distribution,IN SERVICE,OSM
Hamilton Road Substation,,,TX,29.3738202,-100.849181,1,138.0,138.0,American Electric Power,transmission,IN SERVICE,OSM
Hamilton Wolfe Road Substation,,,TX,29.5152762,-98.5882158,1,138.0,138.0,CPS Energy,distribution,IN SERVICE,OSM
Hargrove Substation,,,TX,31.3083107,-100.938971,1,138.0,138.0,American Electric Power,transmission,IN SERVICE,OSM
Harlandale Substation,,,TX,29.363341,-98.4958429,1,138.0,138.0,CPS Energy,distribution,IN SERVICE,OSM
Harlingen Switching Station,,,TX,26.2221971,-97.6982284,1,138.0,69.0,American Electric Power,transmission,IN SERVICE,OSM
Harmony Hills Substation,,,TX,29.5540094,-98.5060042,1,138.0,138.0,CPS Energy,distribution,IN SERVICE,OSM
Harper Road Substation,,,TX,30.0733996,-99.1507537,1,138.0,138.0,Lower Colorado River Authority,distribution,IN SERVICE,OSM
Harper Substation,,,TX,30.2989664,-99.2401443,1,138.0,138.0,Central Texas Electric Cooperative,distribution,IN SERVICE,OSM
Harris Branch Substation,,,TX,30.3712511,-97.5809133,1,138.0,138.0,Lower Colorado River Authority,distribution,IN SERVICE,OSM
Harrison Road Substation,,,TX,32.4936273,-94.8090898,1,138.0,138.0,American Electric Power,distribution,IN SERVICE,OSM
Hasse Substation,,,TX,31.924459,-98.5040409,1,138.0,69.0,Brazos Electric,transmission,IN SERVICE,OSM
Hastings Substation,,,TX,35.2503002,-101.8499428,1,138.0,12.5,Xcel Energy; Texas-New Mexico Power,distribution,IN SERVICE,OSM
Haynes Substation,,,TX,32.4434317,-100.3973868,1,138.0,138.0,Golden Spread Electric Cooperative,distribution,IN SERVICE,OSM
Hearn'S Ferry Substation,,,TX,27.8322111,-97.5376703,1,138.0,138.0,American Electric Power,industrial,IN SERVICE,OSM
Hearne Substation,,,TX,30.8841266,-96.6259188,1,138.0,69.0,Brazos Electric,transmission,IN SERVICE,OSM
Hebron Substation,,,TX,33.0482825,-96.9039765,1,138.0,138.0,Brazos Electric,distribution,IN SERVICE,OSM
Hecker Substation,,,TX,27.9048779,-97.2829086,1,138.0,138.0,American Electric Power,transmission,IN SERVICE,OSM
Heidelberg Substation,,,TX,26.2284651,-97.8875945,1,138.0,138.0,South Texas Electric Cooperative,distribution,IN SERVICE,OSM
Heights Substation,,,TX,29.3897114,-94.9499464,1,138.0,12.5,Texas-New Mexico Power,transmission,IN SERVICE,OSM
Helena Substation,,,TX,28.9379598,-97.7999956,1,138.0,138.0,South Texas Electric Cooperative,distribution,IN SERVICE,OSM
Helios Substation,,,TX,29.2260649,-99.6997463,1,138.0,138.0,Consolidated Edison,transmission,IN SERVICE,OSM
Helotes Substation,,,TX,29.5481778,-98.6818689,1,138.0,138.0,CPS Energy,distribution,IN SERVICE,OSM
Henly Substation,,,TX,30.2028212,-98.156778,1,138.0,138.0,Pedernales Electric Cooperative,distribution,IN SERVICE,OSM
Henne Substation,,,TX,29.7735088,-98.050972,1,138.0,12.5,New Braunfels Utilities,transmission,IN SERVICE,OSM
Hi Cross Substation,,,TX,30.1861982,-97.7691114,1,138.0,138.0,Austin Energy,transmission,IN SERVICE,OSM
Hickory Forest Substation,,,TX,29.4683849,-97.8641655,1,138.0,138.0,Guadalupe Valley Electric Cooperative,distribution,IN SERVICE,OSM
Hickory Substation,,,TX,33.2151664,-97.1618433,1,138.0,138.0,DME,distribution,IN SERVICE,OSM
Hidden Valley Substation,,,TX,30.3840822,-97.9002435,1,138.0,138.0,Austin Energy,distribution,IN SERVICE,OSM
Highland Hills Substation,,,TX,29.3589115,-98.40909,1,138.0,138.0,CPS Energy,distribution,IN SERVICE,OSM
Highlands Substation,,,TX,33.0721699,-97.0352463,1,138.0,69.0,South Texas Electric Cooperative,distribution,IN SERVICE,OSM
Hightower Substation,,,TX,30.413075,-94.9268651,1,138.0,138.0,Sam Houston Electric Cooperative,distribution,IN SERVICE,OSM
Highway 123 Substation,,,TX,29.4940245,-97.9584953,1,138.0,138.0,Lower Colorado River Authority,transmission,IN SERVICE,OSM
Highway 32 Substation,,,TX,29.9457441,-98.0935748,1,138.0,138.0,Pedernales Electric Cooperative,distribution,IN SERVICE,OSM
Highway 36 Substation,,,TX,30.1226172,-96.3737986,1,138.0,138.0,Lower Colorado River Authority,transmission,IN SERVICE,OSM
Highway 46 Substation,,,TX,29.7587636,-98.245232,1,138.0,12.5,New Braunfels Utilities,distribution,IN SERVICE,OSM
Highway 511 Substation,,,TX,25.937539,-97.4081827,1,138.0,138.0,South Texas Electric Cooperative,distribution,IN SERVICE,OSM
Highway 6 Substation,,,TX,30.4404773,-96.1311211,1,138.0,138.0,Brazos Electric,distribution,IN SERVICE,OSM
Highway 9 Substation,,,TX,27.7963975,-97.4458642,1,138.0,69.0,American Electric Power,transmission,IN SERVICE,OSM
Hillbig Substation,,,TX,30.0055599,-97.4044178,1,138.0,138.0,Lower Colorado River Authority,distribution,IN SERVICE,OSM
Hilltop Lakes Substation,,,TX,31.0800416,-96.2221791,1,138.0,69.0,Brazos Electric,transmission,IN SERVICE,OSM
Hilltop Substation,,,TX,29.8986018,-97.9414892,1,138.0,12.5,San Marcos Electric Utilities,distribution,IN SERVICE,OSM
Hindes Substation,,,TX,28.6463294,-98.9026564,1,138.0,138.0,South Texas Electric Cooperative,distribution,IN SERVICE,OSM
Hobart Junction,,,TX,35.0319262,-99.0594561,1,138.0,69.0,Public Service Company of Oklahoma,distribution,IN SERVICE,OSM
Holbrook Substation,,,TX,29.4634732,-98.4165984,1,138.0,138.0,CPS Energy,distribution,IN SERVICE,OSM
Holcomb Substation,,,TX,28.0332546,-99.3616349,1,138.0,138.0,American Electric Power,distribution,IN SERVICE,OSM
Holder Substation,,,TX,31.9135118,-98.9784928,1,138.0,69.0,Brazos Electric,transmission,IN SERVICE,OSM
Hollis Substation,,,TX,34.6800192,-99.9119061,1,138.0,138.0,Public Service Company of Oklahoma,distribution,IN SERVICE,OSM
Hollmig Substation,,,TX,30.2523086,-98.8820286,1,138.0,138.0,Lower Colorado River Authority,distribution,IN SERVICE,OSM
Holly Substation,,,TX,27.7084532,-97.3973469,1,138.0,138.0,American Electric Power,distribution,IN SERVICE,OSM
Hollywood Park Substation,,,TX,29.594882,-98.4715865,1,138.0,138.0,CPS Energy,distribution,IN SERVICE,OSM
Homeport Substation,,,TX,27.8278738,-97.20955,1,138.0,138.0,American Electric Power,distribution,IN SERVICE,OSM
Hondo Creek Substation,,,TX,29.2723925,-99.0843834,1,138.0,69.0,South Texas Electric Cooperative,transmission,IN SERVICE,OSM
Hondo Substation,,,TX,29.3155529,-99.1039726,1,138.0,69.0,South Texas Electric Cooperative; CPS Energy,distribution,IN SERVICE,OSM
Honey Substation,,,TX,30.3984693,-94.4459466,1,138.0,138.0,Sam Houston Electric Cooperative,distribution,IN SERVICE,OSM
Horse Hollow 1 & 2 Substation,,,TX,32.1990508,-100.0235081,1,138.0,34.5,NextEra Energy,transmission,IN SERVICE,OSM
Horse Hollow 2 & 3 Switching Station,,,TX,32.1935548,-100.0282036,1,138.0,138.0,NextEra Energy,transmission,IN SERVICE,OSM
Horse Hollow 2 Substation,,,TX,32.2695579,-100.1769787,1,138.0,34.5,NextEra Energy,transmission,IN SERVICE,OSM
Horse Hollow 3 Substation,,,TX,32.2654289,-100.2844162,1,138.0,34.5,NextEra Energy,transmission,IN SERVICE,OSM
Horseshoe Bay Substation,,,TX,30.5328,-98.3925162,1,138.0,138.0,Pedernales Electric Cooperative,distribution,IN SERVICE,OSM
Horton Substation,,,TX,32.5325845,-99.686367,1,138.0,138.0,Golden Spread Electric Cooperative,distribution,IN SERVICE,OSM
Hortontown Substation,,,TX,29.7133422,-98.0981157,1,138.0,12.5,New Braunfels Utilities,distribution,IN SERVICE,OSM
Hot Wells Substation,,,TX,29.3701712,-98.4546129,1,138.0,138.0,CPS Energy,distribution,IN SERVICE,OSM
Hovey Substation,,,TX,30.9526276,-103.3614053,1,138.0,34.5,First Solar,transmission,IN SERVICE,OSM
Howard Lane Substation,,,TX,30.4331497,-97.6887667,1,138.0,138.0,Austin Energy,distribution,IN SERVICE,OSM
Hunt Lane Substation,,,TX,29.4149889,-98.6670845,1,138.0,138.0,CPS Energy,distribution,IN SERVICE,OSM
Hunt Substation,,,TX,30.0761257,-99.3360162,1,138.0,138.0,Lower Colorado River Authority,distribution,IN SERVICE,OSM
Ih 20 Substation,,,TX,31.3998664,-103.4908509,1,138.0,138.0,Texas-New Mexico Power,transmission,IN SERVICE,OSM
Illinnois #4 Substation,,,TX,30.5545154,-101.5355005,1,138.0,69.0,American Electric Power,transmission,IN SERVICE,OSM
Indian Mesa Substation,,,TX,30.9791274,-102.2713145,1,138.0,138.0,American Electric Power,distribution,IN SERVICE,OSM
Indian Mesa Wind Substation,,,TX,30.9316711,-102.2017418,1,138.0,138.0,NextEra Energy,transmission,IN SERVICE,OSM
Indian Substation,,,TX,30.7189107,-94.7135157,1,138.0,138.0,Sam Houston Electric Cooperative,distribution,IN SERVICE,OSM
Ingleside Cogeneration Switchyard,,,TX,27.8820279,-97.2466139,1,138.0,138.0,Chemours; Occidental Petroleum,transmission,IN SERVICE,OSM
Ingleside Oxy Substation,,,TX,27.8805388,-97.2417833,1,138.0,138.0,Occidental Petroleum,industrial,IN SERVICE,OSM
Ingleside Substation,,,TX,27.8721143,-97.2168423,1,138.0,138.0,American Electric Power,distribution,IN SERVICE,OSM
Iola Substation,,,TX,30.7315278,-96.0463321,1,138.0,138.0,Brazos Electric,distribution,IN SERVICE,OSM
Isp Substation,,,TX,29.4256236,-94.963842,1,138.0,138.0,Texas-New Mexico Power,industrial,IN SERVICE,OSM
Israel Road Substation,,,TX,30.7300365,-94.9064333,1,138.0,138.0,Sam Houston Electric Cooperative,distribution,IN SERVICE,OSM
Jardin Substation,,,TX,28.5198799,-99.2379085,1,138.0,25.0,South Texas Electric Cooperative,distribution,IN SERVICE,OSM
Javelina Substation,,,TX,27.8051322,-97.457036,1,138.0,138.0,American Electric Power,industrial,IN SERVICE,OSM
Jerry Substation,,,TX,31.2299962,-101.2993888,1,138.0,138.0,American Electric Power,transmission,IN SERVICE,OSM
Jett Substation,,,TX,30.3747184,-97.8064759,1,138.0,138.0,Austin Energy,distribution,IN SERVICE,OSM
Jim Payne Substation,,,TX,32.6540653,-102.0399812,1,138.0,138.0,Golden Spread Electric Cooperative,transmission,IN SERVICE,OSM
Johnsville Substation,,,TX,32.1218502,-97.9455339,1,138.0,138.0,Brazos Electric,distribution,IN SERVICE,OSM
Jollyville Substation,,,TX,30.47956,-97.7816677,1,138.0,138.0,Austin Energy,distribution,IN SERVICE,OSM
Jones Street Substation,,,TX,33.0641789,-97.0040362,1,138.0,13.0,Texas-New Mexico Power,distribution,IN SERVICE,OSM
Joslin Substation,,,TX,28.6487411,-96.5464448,1,138.0,138.0,American Electric Power,transmission,IN SERVICE,OSM
Karnes City Substation,,,TX,28.8588949,-97.8786038,1,138.0,138.0,American Electric Power,distribution,IN SERVICE,OSM
Keith Substation,,,TX,30.6491145,-96.1014988,1,138.0,138.0,Brazos Electric,distribution,IN SERVICE,OSM
Keith Switching Station,,,TX,30.6510846,-96.0913738,1,138.0,138.0,Brazos Electric,transmission,IN SERVICE,OSM
Kempner Substation,,,TX,31.0913408,-98.0539759,1,138.0,138.0,Brazos Electric,distribution,IN SERVICE,OSM
Kendall Ctec Substation,,,TX,29.9862665,-98.8847756,1,138.0,12.5,Central Texas Electric Cooperative,distribution,IN SERVICE,OSM
Kenedy Switching Station,,,TX,28.8424725,-97.8374184,1,138.0,69.0,American Electric Power,transmission,IN SERVICE,OSM
Kent Substation,,,TX,30.4953132,-97.8083695,1,138.0,138.0,Pedernales Electric Cooperative,distribution,IN SERVICE,OSM
Keo Substation,,,TX,30.8184194,-102.3659149,1,138.0,34.5,BP,transmission,IN SERVICE,OSM
Kerrville Legion Substation,,,TX,30.0003254,-99.1003677,1,138.0,138.0,Lower Colorado River Authority,distribution,IN SERVICE,OSM
Kerrville Stadium Substation,,,TX,30.0578856,-99.1338523,1,138.0,12.5,Lower Colorado River Authority,transmission,IN SERVICE,OSM
Kerrville Travis Substation,,,TX,30.042648,-99.1246412,1,138.0,138.0,Lower Colorado River Authority,distribution,IN SERVICE,OSM
Ketchum Mountain Substation,,,TX,31.2969386,-101.0360074,1,138.0,138.0,Golden Spread Electric Cooperative,distribution,IN SERVICE,OSM
Keystone Substation,,,TX,33.9830336,-96.006445,1,138.0,69.0,Texas-New Mexico Power,distribution,IN SERVICE,OSM
King Mountain Northeast Substation,,,TX,31.2744242,-102.1795982,1,138.0,34.5,NextEra Energy,generation,IN SERVICE,OSM
King Mountain Northwest Substation,,,TX,31.2526398,-102.2383862,1,138.0,34.5,NextEra Energy,generation,IN SERVICE,OSM
King Mountain Southeast Substation,,,TX,31.2274527,-102.1330372,1,138.0,34.5,NextEra Energy,transmission,IN SERVICE,OSM
King Mountain Southwest Substation,,,TX,31.2214464,-102.2773363,1,138.0,34.5,NextEra Energy,generation,IN SERVICE,OSM
King Ranch Gas Plant Substation,,,TX,27.4692226,-98.0534068,1,138.0,138.0,American Electric Power,industrial,IN SERVICE,OSM
Kings Row Substation,,,TX,33.2499992,-97.0985878,1,138.0,138.0,Denton Municipal Electric,distribution,IN SERVICE,OSM
Kingsbery Substation,,,TX,30.2652069,-97.6871771,1,138.0,69.0,Austin Energy,transmission,IN SERVICE,OSM
Kingsville Substation,,,TX,27.530704,-97.8862268,1,138.0,138.0,American Electric Power,distribution,IN SERVICE,OSM
Kirby Substation,,,TX,29.4653848,-98.3924152,1,138.0,138.0,CPS Energy,distribution,IN SERVICE,OSM
Kirbyville Substation,,,TX,30.6730971,-93.8905017,1,138.0,138.0,JNEC,transmission,IN SERVICE,OSM
Kleberg Substation,,,TX,27.4922344,-97.8551151,1,138.0,138.0,American Electric Power,distribution,IN SERVICE,OSM
Koch Upriver Substation,,,TX,27.827338,-97.5247135,1,138.0,69.0,American Electric Power,transmission,IN SERVICE,OSM
Koppe Bridge Substation,,,TX,30.5329126,-96.311192,1,138.0,138.0,Bryan Texas Utilities,distribution,IN SERVICE,OSM
Kunitz Substation,,,TX,31.7348475,-104.7490473,1,138.0,138.0,Lower Colorado River Authority,transmission,IN SERVICE,OSM
Kurten Substation,,,TX,30.7997729,-96.2928396,1,138.0,138.0,Bryan Texas Utilities,distribution,IN SERVICE,OSM
Kyle Substation,,,TX,29.949868,-97.8842778,1,138.0,138.0,Pedernales Electric Cooperative,distribution,IN SERVICE,OSM
La Grange Substation,,,TX,29.9327742,-96.8743392,1,138.0,138.0,Lower Colorado River Authority,distribution,IN SERVICE,OSM
La Palma 138 Kv Substation,,,TX,26.1435974,-97.6425883,1,138.0,138.0,American Electric Power,transmission,IN SERVICE,OSM
La Palma 69 Kv Substation,,,TX,26.1422382,-97.6419133,1,138.0,69.0,American Electric Power,transmission,IN SERVICE,OSM
La Quinta Substation,,,TX,27.4874721,-99.0066386,1,138.0,138.0,American Electric Power,transmission,IN SERVICE,OSM
La Sara Substation,,,TX,26.4512817,-97.8468366,1,138.0,138.0,South Texas Electric Cooperative,distribution,IN SERVICE,OSM
La Sierra Substation,,,TX,29.6171858,-98.6080393,1,138.0,34.5,CPS Energy,distribution,IN SERVICE,OSM
Lago Vista Substation,,,TX,30.4606591,-97.9785748,1,138.0,138.0,Pedernales Electric Cooperative,distribution,IN SERVICE,OSM
Lake Forest Substation,,,TX,30.3403973,-95.6145329,1,138.0,138.0,Brazos Electric,distribution,IN SERVICE,OSM
Lake Lamond Substation,,,TX,32.5066146,-94.7699476,1,138.0,69.0,Southwestern Electric Power Company,transmission,IN SERVICE,OSM
Lake Pauline Substation,,,TX,34.2523255,-99.684751,1,138.0,69.0,American Electric Power,transmission,IN SERVICE,OSM
Lake Whitney Substation,,,TX,31.8596211,-97.3672401,1,138.0,69.0,Texas-New Mexico Power,distribution,IN SERVICE,OSM
Lakeshore Substation,,,TX,30.3151729,-97.7804896,1,138.0,138.0,Austin Energy,distribution,IN SERVICE,OSM
Lakeway Substation,,,TX,30.3586728,-97.9787637,1,138.0,138.0,Pedernales Electric Cooperative; Austin Energy,distribution,IN SERVICE,OSM
Lakeway Tap,,,TX,30.3777135,-97.9423974,1,138.0,138.0,Lower Colorado River Authority,transmission,IN SERVICE,OSM
Lamesa Solar Substation,,,TX,32.7195007,-101.9362299,1,138.0,138.0,Southern Company,generation,IN SERVICE,OSM
Lampasas Substation,,,TX,31.0845143,-98.1837127,1,138.0,138.0,Lower Colorado River Authority,transmission,IN SERVICE,OSM
Lane City Pump Substation,,,TX,29.1933412,-96.0716946,1,138.0,138.0,American Electric Power,industrial,IN SERVICE,OSM
Langford Wind Substation,,,TX,31.1185543,-100.6307469,1,138.0,34.5,NRG Energy,transmission,IN SERVICE,OSM
Laredo Heights Substation,,,TX,27.5236798,-99.4901461,1,138.0,138.0,American Electric Power,distribution,IN SERVICE,OSM
Laredo Plant Statcom Substation,,,TX,27.5687335,-99.508382,1,138.0,138.0,American Electric Power,compensation,IN SERVICE,OSM
Laredo Plant Substation,,,TX,27.5675198,-99.5069824,1,138.0,12.5,American Electric Power,transmission,IN SERVICE,OSM
Laredo Street Substation,,,TX,29.4153412,-98.5016282,1,138.0,138.0,CPS Energy,distribution,IN SERVICE,OSM
Laredo Vft North Yard,,,TX,27.5725569,-99.5090455,1,138.0,138.0,American Electric Power,transmission,IN SERVICE,OSM
Las Pulgas Substation,,,TX,26.460976,-97.7505799,1,138.0,138.0,American Electric Power,transmission,IN SERVICE,OSM
Latexo Substation,,,TX,31.3643775,-95.4252227,1,138.0,138.0,Houston County Electric Cooperative,distribution,IN SERVICE,OSM
Laureles Substation,,,TX,26.1225981,-97.5472631,1,138.0,138.0,American Electric Power,distribution,IN SERVICE,OSM
League City Main Substation,,,TX,29.5009557,-95.0819814,1,138.0,12.5,Texas-New Mexico Power,distribution,IN SERVICE,OSM
Leander Substation,,,TX,30.5857052,-97.841613,1,138.0,138.0,Lower Colorado River Authority,distribution,IN SERVICE,OSM
Lebanon Substation,,,TX,33.1111554,-96.7747126,1,138.0,138.0,Brazos Electric,distribution,IN SERVICE,OSM
Lehigh Substation,,,TX,30.0290386,-97.8659726,1,138.0,69.0,Pedernales Electric Cooperative,transmission,IN SERVICE,OSM
Leon Creek Switchyard,,,TX,29.3502913,-98.5751762,1,138.0,138.0,CPS Energy,transmission,IN SERVICE,OSM
Lexington Substation,,,TX,30.4158731,-97.0032872,1,138.0,138.0,Lower Colorado River Authority,distribution,IN SERVICE,OSM
Ligon Substation,,,TX,30.8330141,-102.3723321,1,138.0,138.0,BP,transmission,IN SERVICE,OSM
Linde Substation,,,TX,29.963356,-93.9220696,1,138.0,138.0,Linde,industrial,IN SERVICE,OSM
Lingleville Substation,,,TX,32.2608135,-98.4683601,1,138.0,138.0,Brazos Electric,distribution,IN SERVICE,OSM
Live Oak Substation,,,TX,30.2658895,-98.8881897,1,138.0,69.0,Central Texas Electric Cooperative; American Electric Power,distribution,IN SERVICE,OSM
Livingston Substation,,,TX,30.714288,-94.9175312,1,138.0,138.0,City of Livingston,distribution,IN SERVICE,OSM
Lockhart Substation,,,TX,29.8708131,-97.6612579,1,138.0,12.5,Lower Colorado River Authority,transmission,IN SERVICE,OSM
Locust Substation,,,TX,33.2549841,-97.1331342,1,138.0,138.0,DME,distribution,IN SERVICE,OSM
Logan'S Gap Wind Substation,,,TX,31.8030627,-98.6943437,1,138.0,34.5,Pattern Energy,transmission,IN SERVICE,OSM
Lolita Substation,,,TX,28.8531665,-96.5574016,1,138.0,138.0,American Electric Power,distribution,IN SERVICE,OSM
Loma Alta Substation,,,TX,25.9773229,-97.3844911,1,138.0,69.0,Brownsville Public Utilities Board,transmission,IN SERVICE,OSM
Lometa Substation,,,TX,31.215333,-98.3907995,1,138.0,138.0,Lower Colorado River Authority,distribution,IN SERVICE,OSM
Lonestar Substation,,,TX,31.5942755,-103.2484104,1,138.0,138.0,Texas-New Mexico Power,distribution,IN SERVICE,OSM
Long Loop Substation,,,TX,30.8956049,-101.9919923,1,138.0,138.0,Lower Colorado River Authority,transmission,IN SERVICE,OSM
Longview Heights Substation,,,TX,32.5064616,-94.6874154,1,138.0,69.0,Southwestern Electric Power Company,distribution,IN SERVICE,OSM
Loop 337 Substation,,,TX,29.702233,-98.1600053,1,138.0,12.5,New Braunfels Utilities,distribution,IN SERVICE,OSM
Loop 463 Substation,,,TX,28.8163835,-97.0749995,1,138.0,12.5,South Texas Electric Cooperative,distribution,IN SERVICE,OSM
Los Angeles Heights Substation,,,TX,29.4668347,-98.5264534,1,138.0,138.0,CPS Energy,distribution,IN SERVICE,OSM
Los Angeles Substation,,,TX,28.390901,-99.0011059,1,138.0,138.0,South Texas Electric Cooperative,distribution,IN SERVICE,OSM
Los Fresnos Substation,,,TX,26.0767803,-97.5232475,1,138.0,138.0,American Electric Power,distribution,IN SERVICE,OSM
Lost Creek Substation,,,TX,29.0679076,-97.3662781,1,138.0,138.0,Guadalupe Valley Electric Cooperative,industrial,IN SERVICE,OSM
Lotebush Substation,,,TX,31.2916032,-103.1171075,1,138.0,138.0,American Electric Power,transmission,IN SERVICE,OSM
Loyola Substation,,,TX,27.3185166,-97.8101325,1,138.0,69.0,American Electric Power,transmission,IN SERVICE,OSM
Luling City Substation,,,TX,29.6974781,-97.6543808,1,138.0,12.5,Lower Colorado River Authority,transmission,IN SERVICE,OSM
Lynx Substation,,,TX,31.0718593,-102.3935068,1,138.0,138.0,American Electric Power,transmission,IN SERVICE,OSM
Lyons Substation,,,TX,35.5496939,-100.9557734,1,138.0,69.0,Lower Colorado River Authority,distribution,IN SERVICE,OSM
Lyssy Substation,,,TX,28.8943977,-98.1200535,1,138.0,138.0,South Texas Electric Cooperative,distribution,IN SERVICE,OSM
Lytle Substation,,,TX,29.2506522,-98.8041967,1,138.0,12.5,CPS Energy; American Electric Power,distribution,IN SERVICE,OSM
Macedonia Substation,,,TX,30.1597039,-95.8099064,1,138.0,24.9,San Bernard Electric Cooperative,distribution,IN SERVICE,OSM
Magill Substation,,,TX,29.0123491,-95.9693286,1,138.0,138.0,American Electric Power,transmission,IN SERVICE,OSM
Magnesium Plant Substation,,,TX,30.3733286,-97.7226041,1,138.0,138.0,Austin Energy,distribution,IN SERVICE,OSM
Magnolia Substation,,,TX,29.4883046,-95.1339785,1,138.0,12.5,Texas-New Mexico Power; American Electric Power,distribution,IN SERVICE,OSM
Magruder Substation,,,TX,28.8412473,-97.009854,1,138.0,69.0,American Electric Power,transmission,IN SERVICE,OSM
Manchaca Substation,,,TX,30.1352506,-97.8506158,1,138.0,138.0,Pedernales Electric Cooperative,distribution,IN SERVICE,OSM
Manor Substation,,,TX,30.3494801,-97.5092739,1,138.0,138.0,Bluebonnet Electric Cooperative,distribution,IN SERVICE,OSM
Maple Street Substation,,,TX,32.4041606,-99.7257068,1,138.0,138.0,American Electric Power,distribution,IN SERVICE,OSM
Marble Falls Substation,,,TX,30.5551766,-98.2577588,1,138.0,138.0,Lower Colorado River Authority,transmission,IN SERVICE,OSM
Marconi Substation,,,TX,26.0921204,-97.3971221,1,138.0,138.0,American Electric Power,transmission,IN SERVICE,OSM
Marfa Alamito Creek Substation,,,TX,30.3162931,-104.0088458,1,138.0,69.0,American Electric Power,transmission,IN SERVICE,OSM
Marquis Substation,,,TX,32.9020987,-96.6776762,1,138.0,69.0,Garland Power & Light,distribution,IN SERVICE,OSM
Marshall Ford Lower Switchyard,,,TX,30.3899725,-97.9075505,1,138.0,69.0,Lower Colorado River Authority,transmission,IN SERVICE,OSM
Marshall Ford Upper Switchyard,,,TX,30.3892021,-97.9090549,1,138.0,138.0,Lower Colorado River Authority,transmission,IN SERVICE,OSM
Martinez Substation,,,TX,29.4506996,-98.3223674,1,138.0,138.0,CPS Energy,distribution,IN SERVICE,OSM
Mason Creek Substation,,,TX,29.7605766,-99.0223297,1,138.0,12.5,Bandera Electric Cooperative,distribution,IN SERVICE,OSM
Mason Substation,,,TX,30.7380387,-99.2341799,1,138.0,69.0,American Electric Power; Central Texas Electric Cooperative,transmission,IN SERVICE,OSM
Mauermann Road Substation,,,TX,29.2845343,-98.5074973,1,138.0,138.0,CPS Energy,distribution,IN SERVICE,OSM
Maverick Substation,,,TX,28.8667609,-100.5505902,1,138.0,138.0,American Electric Power,distribution,IN SERVICE,OSM
Mayo Substation,,,TX,27.9094819,-97.4246969,1,138.0,138.0,American Electric Power,distribution,IN SERVICE,OSM
Mcadoo Wind Energy Substation,,,TX,33.750418,-100.9915587,1,138.0,138.0,Invenergy,transmission,IN SERVICE,OSM
Mccabe Substation,,,TX,29.6432279,-95.0404527,1,138.0,138.0,Kuraray,industrial,IN SERVICE,OSM
Mccamey Substation,,,TX,31.1372477,-102.203295,1,138.0,12.5,American Electric Power,distribution,IN SERVICE,OSM
Mccarty Lane Substation,,,TX,29.8264826,-97.9647471,1,138.0,138.0,Lower Colorado River Authority,transmission,IN SERVICE,OSM
Mccree Substation,,,TX,32.8724676,-96.6636433,1,138.0,138.0,Garland Power & Light,distribution,IN SERVICE,OSM
Mcelmurray 24.9 Substation,,,TX,32.4659237,-100.1391493,1,138.0,0.025,Golden Spread Electric Cooperative,distribution,IN SERVICE,OSM
Mcelmurray Substation,,,TX,32.465892,-100.1388486,1,138.0,138.0,Golden Spread Electric Cooperative,distribution,IN SERVICE,OSM
Mcgregor Substation,,,TX,32.075881,-106.1753494,1,138.0,138.0,Brazos Electric,distribution,IN SERVICE,OSM
Mckenzie Substation,,,TX,27.8057282,-97.5714881,1,138.0,138.0,American Electric Power,distribution,IN SERVICE,OSM
Mckinney Street Substation,,,TX,33.2136275,-97.1027909,1,138.0,138.0,Denton Municipal Electric,distribution,IN SERVICE,OSM
Mcneil Substation,,,TX,30.3929592,-97.6892898,1,138.0,69.0,Austin Energy; Lower Colorado River Authority,transmission,IN SERVICE,OSM
Mcqueeney Substation,,,TX,29.5885477,-98.0495854,1,138.0,138.0,Guadalupe Valley Electric Cooperative,transmission,IN SERVICE,OSM
Medical Center Substation,,,TX,29.5207624,-98.5757141,1,138.0,138.0,CPS Energy,distribution,IN SERVICE,OSM
Medina Base Substation,,,TX,29.380694,-98.6347169,1,138.0,138.0,CPS Energy,distribution,IN SERVICE,OSM
Medina Lake Substation,,,TX,29.6125343,-98.9331466,1,138.0,12.5,Bandera Electric Cooperative,distribution,IN SERVICE,OSM
Medio Creek Substation,,,TX,28.2534228,-97.3399067,1,138.0,138.0,American Electric Power,distribution,IN SERVICE,OSM
Menard Substation,,,TX,30.5830965,-94.7477474,1,138.0,138.0,Sam Houston Electric Cooperative,distribution,IN SERVICE,OSM
Mendoza Substation,,,TX,30.0035263,-97.6676064,1,138.0,12.5,Lower Colorado River Authority,distribution,IN SERVICE,OSM
Menger Creek Substation,,,TX,29.7626519,-98.7203037,1,138.0,12.5,Lower Colorado River Authority,distribution,IN SERVICE,OSM
Merida Street Substation,,,TX,29.4094873,-98.5397776,1,138.0,138.0,CPS Energy,distribution,IN SERVICE,OSM
Mesa View Substation,,,TX,30.8977456,-101.9922593,1,138.0,138.0,American Electric Power; Lower Colorado River Authority,distribution,IN SERVICE,OSM
Met Center Substation,,,TX,30.2110191,-97.6931472,1,138.0,138.0,Austin Energy,distribution,IN SERVICE,OSM
Mi Vida Substation,,,TX,31.5152779,-103.4510308,1,138.0,138.0,Texas-New Mexico Power,transmission,IN SERVICE,OSM
Midtown Substation,,,TX,25.938485,-97.5055713,1,138.0,138.0,Brownsville Public Utilities Board,distribution,IN SERVICE,OSM
Milano Substation,,,TX,30.7635772,-96.8635274,1,138.0,138.0,Brazos Electric,distribution,IN SERVICE,OSM
Military Highway Substation,,,TX,25.9368506,-97.5356934,1,138.0,138.0,Brownsville Public Utilities Board,transmission,IN SERVICE,OSM
Mill Creek Substation,,,TX,30.9942761,-94.1060456,1,138.0,138.0,JNEC; Bluebonnet Electric Cooperative,transmission,IN SERVICE,OSM
Miller Creek Substation,,,TX,30.2620154,-98.2984704,1,138.0,138.0,Lower Colorado River Authority,transmission,IN SERVICE,OSM
Miller Substation,,,TX,32.8946015,-96.6023706,1,138.0,138.0,Garland Power & Light,distribution,IN SERVICE,OSM
Millican Substation,,,TX,30.4756794,-96.2159379,1,138.0,69.0,Bryan Texas Utilities,transmission,IN SERVICE,OSM
Milo Substation,,,TX,27.6110314,-99.4999283,1,138.0,138.0,American Electric Power,distribution,IN SERVICE,OSM
